,Name,Full_Address,Website,Plus_Code,Rating,Reviews,URL,longitude,latitude,State,Zipcode,Street,City
0,Sentara Virginia Beach General Hospital,"1060 First Colonial Road, Virginia Beach, VA 23454",sentara.com,"VX7F+WF Virginia Beach, Virginia",2.8,160,"https://www.google.com/maps/place/Sentara+Virginia+Beach+General+Hospital/@39.0204529,-79.6700073,7z/data=!4m9!1m3!2m2!1semergency+room+virginia!6e2!3m4!1s0x89baebbb1ef734c3:0x933979b5cd060069!8m2!3d36.8647753!4d-76.0262546?hl=en",-76.0274242,36.8641832,VA,23454,1060 First Colonial Road,Virginia Beach
1,AEHS Annandale Primary Care & Urgent Care,"7432 Little River Turnpike, Annandale, VA 22003",aehealthsystem.com,"RQJX+W9 Annandale, Virginia",3.5,77,"https://www.google.com/maps/place/AEHS+Annandale+Primary+Care+%26+Urgent+Care/@39.0204529,-79.6700073,7z/data=!4m9!1m3!2m2!1semergency+room+virginia!6e2!3m4!1s0x89b64cdadeaf8a83:0x6d4a4b11b09ec5b4!8m2!3d38.832328!4d-77.201613?hl=en",-77.2015098,38.8325027,VA,22003,7432 Little River Turnpike,Annandale
2,Ashburn Medical Center | Kaiser Permanente,"43480 Yukon Dr #100, Ashburn, VA 20147",kp.org,"2G54+9R Ashburn, Virginia",3.6,59,"https://www.google.com/maps/place/Ashburn+Medical+Center+%7C+Kaiser+Permanente/@39.0204529,-79.6700073,7z/data=!4m9!1m3!2m2!1semergency+room+virginia!6e2!3m4!1s0x89b63f22abe6cd71:0x6033c67fccb5eb4f!8m2!3d39.0084997!4d-77.4929251?hl=en",-77.4929251,39.0084997,VA,20147,43480 Yukon Dr #100,Ashburn
3,Titan Dental Care,"21351 Gentry Dr STE 135, Sterling, VA 20166",titandentalcare.com,"2HGV+36 Sterling, Virginia",4.9,275,"https://www.google.com/maps/place/Titan+Dental+Care/@39.0204529,-79.6700073,7z/data=!4m9!1m3!2m2!1semergency+room+virginia!6e2!3m4!1s0x89b639beb8299387:0xd8a28c1035d7924b!8m2!3d39.0252377!4d-77.4068979?hl=en",-77.407372,39.0249579,VA,20166,21351 Gentry Dr STE 135,Sterling
4,Metromed Urgent Care,"952 Edwards Ferry Rd NE, Leesburg, VA 20176",metromeduc.com,"4F86+P4 Leesburg, Virginia",4.9,50,"https://www.google.com/maps/place/Metromed+Urgent+Care/@39.0204529,-79.6700073,7z/data=!4m9!1m3!2m2!1semergency+room+virginia!6e2!3m4!1s0x89b63d6d45f9dbe1:0x8c4f58b0a9c83e20!8m2!3d39.11682!4d-77.5396729?hl=en",-77.5396729,39.11682,VA,20176,952 Edwards Ferry Rd NE,Leesburg
5,Inova Urgent Care - Dulles South,"24801 Pinebrook Rd #110, Chantilly, VA 20152",inova.org,"WFJC+X7 Chantilly, Sully, VA",3.6,101,"https://www.google.com/maps/place/Inova+Urgent+Care+-+Dulles+South/@39.0204529,-79.6700073,7z/data=!4m9!1m3!2m2!1semergency+room+virginia!6e2!3m4!1s0x89b641b035978aa1:0x6f416a4d3871caf0!8m2!3d38.932433!4d-77.5293248?hl=en",-77.5292932,38.9324675,VA,20152,24801 Pinebrook Rd #110,Chantilly
6,Centra Gretna Medical Center,"291 McBride Ln, Gretna, VA 24557",centrahealth.com,"XJ2F+98 Gretna, Virginia",3.5,27,"https://www.google.com/maps/place/Centra+Gretna+Medical+Center/@39.0204529,-79.6700073,7z/data=!4m9!1m3!2m2!1semergency+room+virginia!6e2!3m4!1s0x89b2ad2bab81faa7:0x694962a01b9da59!8m2!3d36.9509739!4d-79.3766496?hl=en",-79.3771144,36.951981,VA,24557,291 McBride Ln,Gretna
7,Reston Pediatrics,"6 Pidgeon Hill Dr #170, Sterling, VA 20165",restonpediatrics.com,"2HPP+WV Potomac Falls, Potomac, VA",,,"https://www.google.com/maps/place/Reston+Pediatrics/@39.0204529,-79.6700073,7z/data=!4m9!1m3!2m2!1semergency+room+virginia!6e2!3m4!1s0x89b6399082bdf86d:0x98705975e34585be!8m2!3d39.0373241!4d-77.4127545?hl=en",-77.4127297,39.0373216,VA,20165,6 Pidgeon Hill Dr #170,Sterling
8,Bedford Memorial Hospital,"1613 Oakwood St, Bedford, VA 24523",bedfordmemorial.org,"9F2J+HX Bedford, Center, VA",3.2,23,"https://www.google.com/maps/place/Bedford+Memorial+Hospital/@39.0204529,-79.6700073,7z/data=!4m9!1m3!2m2!1semergency+room+virginia!6e2!3m4!1s0x884d2fd2f35952ef:0x8059660c942687d5!8m2!3d37.3514019!4d-79.5175735?hl=en",-79.5175735,37.3514019,VA,24523,1613 Oakwood St,Bedford
9,Hampton VA Medical Center,"100 Emancipation Dr, Hampton, VA 23667",hampton.va.gov,"2M79+W3 Hampton, Virginia",2.7,294,"https://www.google.com/maps/place/Hampton+VA+Medical+Center/@39.0204529,-79.6700073,7z/data=!4m9!1m3!2m2!1semergency+room+virginia!6e2!3m4!1s0x89ba84cc934199b5:0xd46a4ece349b00b0!8m2!3d37.0148085!4d-76.3323279?hl=en",-76.3333604,37.0164356,VA,23667,100 Emancipation Dr,Hampton
10,North Spring Acute Hospital,"42049 Victory Ln, Leesburg, VA 20176",northspringleesburg.com,"4FV3+X3 Leesburg, Virginia",3.8,4,"https://www.google.com/maps/place/North+Spring+Acute+Hospital/@39.0204529,-79.6700073,7z/data=!4m9!1m3!2m2!1semergency+room+virginia!6e2!3m4!1s0x89b63d4d10ab48b5:0x875efee83a164986!8m2!3d39.1449849!4d-77.5473457?hl=en",-77.5473964,39.1448944,VA,20176,42049 Victory Ln,Leesburg
11,Pediatric Specialists of Virginia,"22505 Landmark Ct, Ashburn, VA 20148",psvcare.org,"XGW9+2P Ashburn, Virginia",2.7,7,"https://www.google.com/maps/place/Pediatric+Specialists+of+Virginia/@39.0204529,-79.6700073,7z/data=!4m9!1m3!2m2!1semergency+room+virginia!6e2!3m4!1s0x89b63f486c860605:0xd3b83e8e1096cf28!8m2!3d38.995091!4d-77.480636?hl=en",-77.4808851,38.9951129,VA,20148,22505 Landmark Ct,Ashburn
12,LMG's Primary & Immediate Care Center,"46440 Benedict Dr #107, Sterling, VA 20164",lmgimmediatecare.com,"2JF4+WV Sterling, Virginia",3.9,48,"https://www.google.com/maps/place/LMG's+Primary+%26+Immediate+Care+Center/@39.0204529,-79.6700073,7z/data=!4m9!1m3!2m2!1semergency+room+virginia!6e2!3m4!1s0x89b639c3a6554359:0x13dacd8dee71dcfa!8m2!3d39.0247998!4d-77.3927972?hl=en",-77.3927881,39.0247612,VA,20164,46440 Benedict Dr #107,Sterling
13,Next Health,"44121 Harry Byrd Hwy STE 115, Ashburn, VA 20147",nexthealth.org,"3G8G+M3 Ashburn, Virginia",5,4,"https://www.google.com/maps/place/Next+Health/@39.0204529,-79.6700073,7z/data=!4m9!1m3!2m2!1semergency+room+virginia!6e2!3m4!1s0x89b63eed804411cb:0x6e6045f61cb9e513!8m2!3d39.0667282!4d-77.4747759?hl=en",-77.4836015,39.0670709,VA,20147,44121 Harry Byrd Hwy STE 115,Ashburn
14,Fair Oaks Hospital,"3600 Joseph Siewick Dr, Fairfax, VA 22033",inova.org,"VJMC+W4 Chantilly, Sully, VA",5,3,"https://www.google.com/maps/place/Fair+Oaks+Hospital/@39.0204529,-79.6700073,7z/data=!4m9!1m3!2m2!1semergency+room+virginia!6e2!3m4!1s0x89b648d42285ed1d:0x2dff24f7bc57c9e9!8m2!3d38.8847881!4d-77.3796574?hl=en",-77.3800608,38.8841221,VA,22033,3600 Joseph Siewick Dr,Fairfax
15,Hunter Holmes McGuire VA Medical Center,"1201 Broad Rock Blvd, Richmond, VA 23249",richmond.va.gov,"FGXM+67 Richmond, Virginia",4,305,"https://www.google.com/maps/place/Hunter+Holmes+McGuire+VA+Medical+Center/@39.0204529,-79.6700073,7z/data=!4m9!1m3!2m2!1semergency+room+virginia!6e2!3m4!1s0x89b111f460bd00b3:0xb35a8b4f169fa0d3!8m2!3d37.4980416!4d-77.4667608?hl=en",-77.4667912,37.4979658,VA,23249,1201 Broad Rock Blvd,Richmond
16,Sentara Independence,"800 Independence Blvd, Virginia Beach, VA 23455",sentara.com,"VV99+4G Virginia Beach, Virginia",3.2,70,"https://www.google.com/maps/place/Sentara+Independence/@39.0204529,-79.6700073,7z/data=!4m9!1m3!2m2!1semergency+room+virginia!6e2!3m4!1s0x89ba94ff6229498d:0x2694fad565a57e75!8m2!3d36.8678727!4d-76.1312034?hl=en",-76.1315876,36.867626,VA,23455,800 Independence Blvd,Virginia Beach
17,Children's National Emergency Department at United Medical Center,"1310 Southern Ave SE 1st Floor, Washington, DC 20032",childrensnational.org,"R2P8+92 Washington, District of Columbia",1.9,112,"https://www.google.com/maps/place/Children's+National+Emergency+Department+at+United+Medical+Center/@39.0204529,-79.6700073,7z/data=!4m9!1m3!2m2!1semergency+room+virginia!6e2!3m4!1s0x89b7ba21af9b8e2b:0x7145faf3aec2f9e1!8m2!3d38.8359393!4d-76.9849936?hl=en",-76.9849936,38.8359393,DC,20032,1310 Southern Ave SE 1st Floor,Washington
18,Medics USA,"44050 Ashburn Shopping Plaza, Ashburn, VA 20147",medicsusa.com,"2GVF+WG Ashburn, Virginia",2.3,31,"https://www.google.com/maps/place/Medics+USA/@39.0204529,-79.6700073,7z/data=!3m1!5s0x89b63eb17f7e8271:0x7edf0a3a7a70c225!4m9!1m3!2m2!1semergency+room+virginia!6e2!3m4!1s0x89b63eb17a5ac86f:0xf07c97818b0a69b6!8m2!3d39.044772!4d-77.476149?hl=en",-77.476556,39.044852,VA,20147,44050 Ashburn Shopping Plaza,Ashburn
19,Family Immediate Care,"420 Elden St, Herndon, VA 20170",familyimmediatecare.com,"XJCG+26 Herndon, Dranesville, VA",4.2,38,"https://www.google.com/maps/place/Family+Immediate+Care/@39.0204529,-79.6700073,7z/data=!4m9!1m3!2m2!1semergency+room+virginia!6e2!3m4!1s0x89b637f930b8acbb:0xc3cc075230eb42a7!8m2!3d38.970098!4d-77.374499?hl=en",-77.3745188,38.9701861,VA,20170,420 Elden St,Herndon
20,Sentara Leigh Hospital,"830 Kempsville Rd, Norfolk, VA 23502",sentara.com,"VR26+85 Norfolk, Virginia",3.5,193,"https://www.google.com/maps/place/Sentara+Leigh+Hospital/@39.0204529,-79.6700073,7z/data=!4m9!1m3!2m2!1semergency+room+virginia!6e2!3m4!1s0x89ba9672c8646e53:0x3acbd755b2ffe629!8m2!3d36.8507711!4d-76.1895655?hl=en",-76.1903378,36.850608,VA,23502,830 Kempsville Rd,Norfolk
21,ExpressCare Urgent Care Center,"20070 Ashbrook Commons Plaza, Ashburn, VA 20147",whywaitintheer.com,"3G5H+WG Ashburn, Virginia",2.8,25,"https://www.google.com/maps/place/ExpressCare+Urgent+Care+Center/@39.0204529,-79.6700073,7z/data=!4m9!1m3!2m2!1semergency+room+virginia!6e2!3m4!1s0x89b63d8f3363b273:0x122268339c602539!8m2!3d39.0598422!4d-77.4711818?hl=en",-77.4704661,39.060448,VA,20147,20070 Ashbrook Commons Plaza,Ashburn
22,Johnston-Willis Hospital,"1401 Johnston Willis Dr, Richmond, VA 23235",johnstonwillismed.com,"GC64+C6 Richmond, Virginia",4.4,912,"https://www.google.com/maps/place/Johnston-Willis+Hospital/@39.0204529,-79.6700073,7z/data=!4m9!1m3!2m2!1semergency+room+virginia!6e2!3m4!1s0x89b16d6d0bb91d0f:0xfe443a11e4d11c8e!8m2!3d37.5110163!4d-77.5944336?hl=en",-77.5946377,37.5106901,VA,23235,1401 Johnston Willis Dr,Richmond
23,Virginia Hospital Center Arlngtn: Raymont Janet,"1701 N George Mason Dr, Arlington, VA 22205",virginiahospitalcenter.com,"VVQC+JW Arlington, Mason, VA",,,"https://www.google.com/maps/place/Virginia+Hospital+Center+Arlngtn:+Raymont+Janet/@39.0204529,-79.6700073,7z/data=!4m9!1m3!2m2!1semergency+room+virginia!6e2!3m4!1s0x89b7b449ebcbce59:0xc47ff2db0852d68!8m2!3d38.8891164!4d-77.1276324?hl=en",-77.1274832,38.8890755,VA,22205,1701 N George Mason Dr,Arlington
24,Va Emergency Med Associates,"3600 Joseph Siewick Dr, Fairfax, VA 22033",vemadocs.com,"VJM9+RW Fairfax, Virginia",,,"https://www.google.com/maps/place/Va+Emergency+Med+Associates/@39.0204529,-79.6700073,7z/data=!4m9!1m3!2m2!1semergency+room+virginia!6e2!3m4!1s0x89b64600484e00bd:0xb6ace6288e7103bb!8m2!3d38.8846182!4d-77.380152?hl=en",-77.3800608,38.8841221,VA,22033,3600 Joseph Siewick Dr,Fairfax
25,Fairfax Medical Center,"10721 Main St, Fairfax, VA 22030",fbch.capmed.mil,"RMXM+J9 Fairfax, Virginia",3.5,4,"https://www.google.com/maps/place/Fairfax+Medical+Center/@39.0204529,-79.6700073,7z/data=!4m9!1m3!2m2!1semergency+room+virginia!6e2!3m4!1s0x89b64eeeb9861851:0x424a4e22786a7113!8m2!3d38.8490881!4d-77.3166053?hl=en",-77.3164681,38.8489581,VA,22030,10721 Main St,Fairfax
26,Riverside Doctors' Hospital Williamsburg,"1500 Commonwealth Ave, Williamsburg, VA 23185",riversideonline.com,"782J+9G Williamsburg, Virginia",3,76,"https://www.google.com/maps/place/Riverside+Doctors'+Hospital+Williamsburg/@39.0204529,-79.6700073,7z/data=!4m9!1m3!2m2!1semergency+room+virginia!6e2!3m4!1s0x89b08842e42ddd1d:0xd17e2606897403ef!8m2!3d37.2509491!4d-76.6686491?hl=en",-76.6685372,37.2508676,VA,23185,1500 Commonwealth Ave,Williamsburg
27,Sentara CarePlex Hospital,"3000 Coliseum Dr, Hampton, VA 23666",sentara.com,"3J45+PW Hampton, Virginia",2.3,196,"https://www.google.com/maps/place/Sentara+CarePlex+Hospital/@39.0204529,-79.6700073,7z/data=!4m9!1m3!2m2!1semergency+room+virginia!6e2!3m4!1s0x89ba830cf51cbb25:0x33c22058a50dd277!8m2!3d37.0568421!4d-76.39017?hl=en",-76.3898479,37.0569034,VA,23666,3000 Coliseum Dr,Hampton
28,Page Memorial Hospital,"200 Memorial Dr, Luray, VA 22835",valleyhealthlink.com,"MG7J+5H Luray, Virginia",2.6,21,"https://www.google.com/maps/place/Page+Memorial+Hospital/@39.0204529,-79.6700073,7z/data=!4m9!1m3!2m2!1semergency+room+virginia!6e2!3m4!1s0x89b44e072e588331:0x2eda76eba3ed95b4!8m2!3d38.6629419!4d-78.468541?hl=en",-78.4685098,38.6629142,VA,22835,200 Memorial Dr,Luray
29,Inova Fair Oaks Hospital,"3600 Joseph Siewick Dr, Fairfax, VA 22033",inova.org,"VJM9+QM Fairfax, Virginia",2.8,129,"https://www.google.com/maps/place/Inova+Fair+Oaks+Hospital/@39.0204529,-79.6700073,7z/data=!4m9!1m3!2m2!1semergency+room+virginia!6e2!3m4!1s0x89b6460189999b15:0x7797d8fd13066ad7!8m2!3d38.8844567!4d-77.3808588?hl=en",-77.3800608,38.8841221,VA,22033,3600 Joseph Siewick Dr,Fairfax
30,Mid Atlantic Urgent Care,"3301 Wilson Blvd, Arlington, VA 22201",midatlanticurgentcare.com,"VWM2+H5 Arlington, Mason, VA",3.2,91,"https://www.google.com/maps/place/Mid+Atlantic+Urgent+Care/@39.0204529,-79.6700073,7z/data=!4m9!1m3!2m2!1semergency+room+virginia!6e2!3m4!1s0x89b7b6831f90fe35:0xdbd9c5ef0d5be813!8m2!3d38.8839197!4d-77.0995555?hl=en",-77.0995455,38.8839247,VA,22201,3301 Wilson Blvd,Arlington
31,Inova Alexandria Hospital,"4320 Seminary Rd, Alexandria, VA 22304",inova.org,"RVFV+2X Alexandria, Mason, VA",2.9,267,"https://www.google.com/maps/place/Inova+Alexandria+Hospital/@39.0204529,-79.6700073,7z/data=!4m9!1m3!2m2!1semergency+room+virginia!6e2!3m4!1s0x89b7b3d831179359:0xc1e644d8b3c177e!8m2!3d38.8225435!4d-77.1050566?hl=en",-77.1049983,38.82245,VA,22304,4320 Seminary Rd,Alexandria
32,Virginia Hospital Center Arlngtn: Donnelly Anne,"1701 N George Mason Dr, Arlington, VA 22205",virginiahospitalcenter.com,"VVQC+JW Arlington, Mason, VA",,,"https://www.google.com/maps/place/Virginia+Hospital+Center+Arlngtn:+Donnelly+Anne/@39.0204529,-79.6700073,7z/data=!4m9!1m3!2m2!1semergency+room+virginia!6e2!3m4!1s0x89b7b449ebcbce59:0xa7f521ff544d2c3c!8m2!3d38.8891164!4d-77.1276324?hl=en",-77.1274832,38.8890755,VA,22205,1701 N George Mason Dr,Arlington
33,John Randolph Medical Center,"411 W Randolph Rd, Hopewell, VA 23860",,"8P55+4F Hopewell, Virginia",3.7,339,"https://www.google.com/maps/place/John+Randolph+Medical+Center/@39.0204529,-79.6700073,7z/data=!4m9!1m3!2m2!1semergency+room+virginia!6e2!3m4!1s0x89b1074bef3e650b:0xc02f2fd34834c30e!8m2!3d37.3078458!4d-77.2912897?hl=en",-77.2915852,37.3077386,VA,23860,411 W Randolph Rd,Hopewell
34,Encompass Health Rehabilitation Hospital of Northern Virginia,"24430 Millstream Dr, Aldie, VA 20105",encompasshealth.com,"WCQW+MW Aldie, Blue Ridge, VA",3.4,34,"https://www.google.com/maps/place/Encompass+Health+Rehabilitation+Hospital+of+Northern+Virginia/@39.0204529,-79.6700073,7z/data=!4m9!1m3!2m2!1semergency+room+virginia!6e2!3m4!1s0x89b641d246064595:0x4d1b31e33c13649e!8m2!3d38.9391666!4d-77.5526834?hl=en",-77.5532544,38.9392723,VA,20105,24430 Millstream Dr,Aldie
35,Virginia Hospital & Healthcare Association,"4200 Innslake Dr # 203, Glen Allen, VA 23060",vhha.com,"MC28+RV Glen Allen, Virginia",2.5,2,"https://www.google.com/maps/place/Virginia+Hospital+%26+Healthcare+Association/@39.0204529,-79.6700073,7z/data=!4m9!1m3!2m2!1semergency+room+virginia!6e2!3m4!1s0x89b16aa247b30057:0x2f5a9aba41b07055!8m2!3d37.6521088!4d-77.5828008?hl=en",-77.5831983,37.6521153,VA,23060,4200 Innslake Dr # 203,Glen Allen
36,Commonwealth Emergency Physicians,"44045 Riverside Pkwy, Leesburg, VA 20176",ceped.net,"3GFC+JX Ashburn, Virginia",1,14,"https://www.google.com/maps/place/Commonwealth+Emergency+Physicians/@39.0204529,-79.6700073,7z/data=!4m9!1m3!2m2!1semergency+room+virginia!6e2!3m4!1s0x89b63c0c3dca5fbd:0xb75c1b480f6695d2!8m2!3d39.0740451!4d-77.4775349?hl=en",-77.477535,39.074045,VA,20176,44045 Riverside Pkwy,Leesburg
37,Chippenham Hospital,"7101 Jahnke Rd, Richmond, VA 23225",hcavirginia.com,"GF7F+8J Richmond, Virginia",3.9,798,"https://www.google.com/maps/place/Chippenham+Hospital/@39.0204529,-79.6700073,7z/data=!4m9!1m3!2m2!1semergency+room+virginia!6e2!3m4!1s0x89b112f072b26b97:0x6a1219376e8e1fed!8m2!3d37.5133572!4d-77.5259515?hl=en",-77.5263617,37.513886,VA,23225,7101 Jahnke Rd,Richmond
38,Virginia Hospital Center Arlngtn: Slack Mark MD,"1701 N George Mason Dr, Arlington, VA 22205",virginiahospitalcenter.com,"VVQC+JW Arlington, Mason, VA",,,"https://www.google.com/maps/place/Virginia+Hospital+Center+Arlngtn:+Slack+Mark+MD/@39.0204529,-79.6700073,7z/data=!4m9!1m3!2m2!1semergency+room+virginia!6e2!3m4!1s0x89b7b449ebcbce59:0x3f8250e807d4c263!8m2!3d38.8891164!4d-77.1276324?hl=en",-77.1274832,38.8890755,VA,22205,1701 N George Mason Dr,Arlington
39,Warren Memorial Hospital,"1000 N Shenandoah Ave, Front Royal, VA 22630",valleyhealthlink.com,"WRJ2+7R Front Royal, Virginia",3.4,46,"https://www.google.com/maps/place/Warren+Memorial+Hospital/@39.0204529,-79.6700073,7z/data=!4m9!1m3!2m2!1semergency+room+virginia!6e2!3m4!1s0x89b5c42b2003419f:0x5c62439bff581ba0!8m2!3d38.9307283!4d-78.1978989?hl=en",-78.198659,38.930951,VA,22630,1000 N Shenandoah Ave,Front Royal
40,Georgetown university Hospital Res,"2949 Saxon Flowers Dr, Fairfax, VA 22031",,"VQC2+JC Merrifield, Providence, VA",,,"https://www.google.com/maps/place/Georgetown+university+Hospital+Res/@39.0204529,-79.6700073,7z/data=!4m9!1m3!2m2!1semergency+room+virginia!6e2!3m4!1s0x89b64bc583505d8d:0x8234eeb54aed21de!8m2!3d38.8715819!4d-77.2489219?hl=en",-77.2489219,38.8715819,VA,22031,2949 Saxon Flowers Dr,Fairfax
41,Inova Urgent Care - West Springfield,"6230 Rolling Rd # J, Springfield, VA 22152",inova.org,"QQJ7+7F Springfield, Lee, VA",3.7,146,"https://www.google.com/maps/place/Inova+Urgent+Care+-+West+Springfield/@39.0204529,-79.6700073,7z/data=!4m9!1m3!2m2!1semergency+room+virginia!6e2!3m4!1s0x89b6528169fefef9:0xe409f71a27e20765!8m2!3d38.7807048!4d-77.2363456?hl=en",-77.2357313,38.780728,VA,22152,6230 Rolling Rd # J,Springfield
42,Johnston Memorial Hospital: Emergency Room,"16000 Johnston Memorial Dr, Abingdon, VA 24211",balladhealth.org,"P3FQ+27 Abingdon, Virginia",2.6,5,"https://www.google.com/maps/place/Johnston+Memorial+Hospital:+Emergency+Room/@36.7226195,-84.1530058,7z/data=!4m9!1m3!2m2!1semergency+room+virginia!6e2!3m4!1s0x8850145565e9feb9:0xda87aa2b2b753fca!8m2!3d36.7226195!4d-81.9117949?hl=en",-81.9117949,36.7226195,VA,24211,16000 Johnston Memorial Dr,Abingdon
43,LewisGale Medical Center,"1900 Electric Rd, Salem, VA 24153",lewisgale.com,"7X79+78 Salem, Virginia",4.1,803,"https://www.google.com/maps/place/LewisGale+Medical+Center/@39.0204529,-79.6700073,7z/data=!4m9!1m3!2m2!1semergency+room+virginia!6e2!3m4!1s0x884d0ba1d82e8cb1:0x5aa5ba771e29672b!8m2!3d37.2631814!4d-80.031644?hl=en",-80.0314944,37.2632034,VA,24153,1900 Electric Rd,Salem
44,Virginia Hospital Center: Palmer Kathryn M MD,"1701 N George Mason Dr, Arlington, VA 22205",virginiahospitalcenter.com,"VVQC+JW Arlington, Mason, VA",,,"https://www.google.com/maps/place/Virginia+Hospital+Center:+Palmer+Kathryn+M+MD/@39.0204529,-79.6700073,7z/data=!4m9!1m3!2m2!1semergency+room+virginia!6e2!3m4!1s0x89b7b449ebcbce59:0x29ecfca8dd2fea10!8m2!3d38.8891164!4d-77.1276324?hl=en",-77.1274832,38.8890755,VA,22205,1701 N George Mason Dr,Arlington
45,Sentara Princess Anne Hospital,"2025 Glenn Mitchell Dr, Virginia Beach, VA 23456",sentara.com,"QWG2+7Q Virginia Beach, Virginia",2.8,200,"https://www.google.com/maps/place/Sentara+Princess+Anne+Hospital/@39.0204529,-79.6700073,7z/data=!4m9!1m3!2m2!1semergency+room+virginia!6e2!3m4!1s0x89babf9d53d329a7:0x32ddd9eac2c38f6d!8m2!3d36.7757202!4d-76.0981112?hl=en",-76.0978916,36.7753343,VA,23456,2025 Glenn Mitchell Dr,Virginia Beach
46,Inova Behavioral Health Services Outpatient,"224 Cornwall St NW, Leesburg, VA 20176",inova.org,"4C9J+WF Leesburg, Virginia",,,"https://www.google.com/maps/place/Inova+Behavioral+Health+Services+Outpatient/@39.0204529,-79.6700073,7z/data=!4m9!1m3!2m2!1semergency+room+virginia!6e2!3m4!1s0x89b617d9f6079535:0xd1205e7d2e024510!8m2!3d39.1198197!4d-77.5688377?hl=en",-77.5688377,39.1198197,VA,20176,224 Cornwall St NW,Leesburg
47,Mary Washington Hospital,"1001 Sam Perry Blvd, Fredericksburg, VA 22401",marywashingtonhealthcare.com,"8G58+X5 Fredericksburg, Virginia",2.1,336,"https://www.google.com/maps/place/Mary+Washington+Hospital/@39.0204529,-79.6700073,7z/data=!4m9!1m3!2m2!1semergency+room+virginia!6e2!3m4!1s0x89b6c1e367d708a3:0x50cd41b90fd094a!8m2!3d38.3099293!4d-77.4845979?hl=en",-77.4832459,38.3108853,VA,22401,1001 Sam Perry Blvd,Fredericksburg
48,Inova Mount Vernon Hospital,"2501 Parkers Ln, Alexandria, VA 22306",inova.org,"PWQF+V7 Alexandria, Mason, VA",3,105,"https://www.google.com/maps/place/Inova+Mount+Vernon+Hospital/@39.0204529,-79.6700073,7z/data=!4m9!1m3!2m2!1semergency+room+virginia!6e2!3m4!1s0x89b7ae42347d4d6b:0xf3f535b0e643e311!8m2!3d38.7397196!4d-77.0768506?hl=en",-77.0771323,38.7397196,VA,22306,2501 Parkers Ln,Alexandria
49,Emergency & Outpatient Center - Lee's Hill,"10401 Spotsylvania Ave #103, Fredericksburg, VA 22408",marywashingtonhealthcare.com,"6GV3+4F Fredericksburg, Virginia",3.6,22,"https://www.google.com/maps/place/Emergency+%26+Outpatient+Center+-+Lee's+Hill/@39.0204529,-79.6700073,7z/data=!4m9!1m3!2m2!1semergency+room+virginia!6e2!3m4!1s0x89b6c1370b621769:0x74045dd4a2f96c21!8m2!3d38.2427845!4d-77.4962767?hl=en",-77.4962767,38.2427845,VA,22408,10401 Spotsylvania Ave #103,Fredericksburg
50,Henrico Doctors' Hospital,"1602 Skipwith Rd, Richmond, VA 23229",hcavirginia.com,"JF35+PW Richmond, Virginia",4.3,833,"https://www.google.com/maps/place/Henrico+Doctors'+Hospital/@39.0204529,-79.6700073,7z/data=!4m9!1m3!2m2!1semergency+room+virginia!6e2!3m4!1s0x89b114dd8a676385:0xd9e3bbb751b090ac!8m2!3d37.6042575!4d-77.540136?hl=en",-77.5400613,37.6040442,VA,23229,1602 Skipwith Rd,Richmond
51,Clinch Valley Medical Center: Emergency Room,"6801 Gov George C. Peery Hwy, Richlands, VA 24641",clinchvalleyhealth.com,"35VJ+R3 Richlands, Northwestern, VA",2.3,3,"https://www.google.com/maps/place/Clinch+Valley+Medical+Center:+Emergency+Room/@37.094566,-84.0610104,7z/data=!4m9!1m3!2m2!1semergency+room+virginia!6e2!3m4!1s0x884fde872920902d:0x84de4a46b3879601!8m2!3d37.094566!4d-81.8197995?hl=en",-81.8196044,37.0945391,VA,24641,6801 Gov George C. Peery Hwy,Richlands
52,Parham Doctors' Hospital,"7700 E Parham Rd, Richmond, VA 23294",hcavirginia.com,"JFJF+PX Richmond, Virginia",4.3,454,"https://www.google.com/maps/place/Parham+Doctors'+Hospital/@39.0204529,-79.6700073,7z/data=!4m9!1m3!2m2!1semergency+room+virginia!6e2!3m4!1s0x89b11572cd414f79:0x97b32a1a40179d0a!8m2!3d37.6318311!4d-77.5250805?hl=en",-77.5252618,37.6331141,VA,23294,7700 E Parham Rd,Richmond
53,Tysons Corner Medical Center | Kaiser Permanente,"8008 Westpark Dr, McLean, VA 22102",healthy.kaiserpermanente.org,"WQHG+Q5 McLean, Dranesville, VA",3.4,193,"https://www.google.com/maps/place/Tysons+Corner+Medical+Center+%7C+Kaiser+Permanente/@39.0204529,-79.6700073,7z/data=!4m9!1m3!2m2!1semergency+room+virginia!6e2!3m4!1s0x89b64a930cdd9b61:0x3ff9b834322f0ef1!8m2!3d38.9294581!4d-77.2245845?hl=en",-77.2245845,38.9294581,VA,22102,8008 Westpark Dr,McLean
54,Russell County Hospital: Emergency Room,"58 Carroll St, Lebanon, VA 24266",balladhealth.org,"VWXC+GJ Lebanon, VA",,,"https://www.google.com/maps/place/Russell+County+Hospital:+Emergency+Room/@36.8987894,-84.3196646,7z/data=!4m9!1m3!2m2!1semergency+room+virginia!6e2!3m4!1s0x88500504014d30e1:0x71c9c8fd88618cc6!8m2!3d36.8987894!4d-82.0784537?hl=en",-82.0784537,36.8987894,VA,24266,58 Carroll St,Lebanon
55,Sentara Potomac Hospital Emergency: Best Edward L MD,"2300 Opitz Blvd, Woodbridge, VA 22191",sentara.com,"JPP7+RH Woodbridge, VA",,,"https://www.google.com/maps/place/Sentara+Potomac+Hospital+Emergency:+Best+Edward+L+MD/@39.0204529,-79.6700073,7z/data=!4m9!1m3!2m2!1semergency+room+virginia!6e2!3m4!1s0x89b655fd2f2fa4a7:0xe3c9d1ad7158cc92!8m2!3d38.6370534!4d-77.2860819?hl=en",-77.286438,38.6369926,VA,22191,2300 Opitz Blvd,Woodbridge
56,Inova Fairfax Hospital,"3300 Gallows Rd, Falls Church, VA 22042",inova.org,"VQ4C+XP Falls Church, Virginia",3.4,462,"https://www.google.com/maps/place/Inova+Fairfax+Hospital/@39.0204529,-79.6700073,7z/data=!4m9!1m3!2m2!1semergency+room+virginia!6e2!3m4!1s0x89b64c9ac6b9265f:0xaf05ab4d8e208180!8m2!3d38.8573966!4d-77.2281251?hl=en",-77.2281251,38.8573966,VA,22042,3300 Gallows Rd,Falls Church
57,LewisGale Hospital Pulaski - Emergency Room,"2400 Lee Hwy, Pulaski, VA 24301",,"369V+H4 Pulaski, Virginia",5,1,"https://www.google.com/maps/place/LewisGale+Hospital+Pulaski+-+Emergency+Room/@39.0204529,-79.6700073,7z/data=!4m9!1m3!2m2!1semergency+room+virginia!6e2!3m4!1s0x884dfcf9a4588811:0x31559152e76d7d2!8m2!3d37.0689058!4d-80.75721?hl=en",-80.7571327,37.0683263,VA,24301,2400 Lee Hwy,Pulaski
58,Dominion Hospital,"2960 Sleepy Hollow road Falls church Va.22044, Oakton, VA 22124",,"WJ3X+PJ Reston, Hunter Mill, VA",,,"https://www.google.com/maps/place/Dominion+Hospital/@39.0204529,-79.6700073,7z/data=!4m9!1m3!2m2!1semergency+room+virginia!6e2!3m4!1s0x89b64970ab612a41:0x2aeea048881122fe!8m2!3d38.9042612!4d-77.3508874?hl=en",-77.1580879,38.8700419,VA,22124,2960 Sleepy Hollow road Falls church Va.22044,Oakton
59,VHC Physician Group - Immediate Care,"764 23rd St S, Arlington, VA 22202",vhcphysiciangroup.com,"VW3R+69 Arlington, Mason, VA",5,2,"https://www.google.com/maps/place/VHC+Physician+Group+-+Immediate+Care/@39.0204529,-79.6700073,7z/data=!4m9!1m3!2m2!1semergency+room+virginia!6e2!3m4!1s0x89b7b7502c70d167:0xc99ee50721939933!8m2!3d38.8530465!4d-77.0590773?hl=en",-77.0590773,38.8530465,VA,22202,764 23rd St S,Arlington
60,Russell County Medical Center- Emergency Room,"58 Carroll St, Lebanon, VA 24266",msha.com,"VWXC+GJ Lebanon, VA",4,1,"https://www.google.com/maps/place/Russell+County+Medical+Center-+Emergency+Room/@36.8987894,-84.3196646,7z/data=!4m9!1m3!2m2!1semergency+room+virginia!6e2!3m4!1s0x88500504046511d3:0x24ed81e7a712de3e!8m2!3d36.8987894!4d-82.0784537?hl=en",-82.0784537,36.8987894,VA,24266,58 Carroll St,Lebanon
61,Winchester Medical Center,"1840 Amherst St, Winchester, VA 22601",valleyhealthlink.com,"5RV4+JJ Winchester, Virginia",2.7,190,"https://www.google.com/maps/place/Winchester+Medical+Center/@39.0204529,-79.6700073,7z/data=!4m9!1m3!2m2!1semergency+room+virginia!6e2!3m4!1s0x89b5ee7328485b79:0x2d3032449e7867ab!8m2!3d39.1940316!4d-78.1934539?hl=en",-78.1933891,39.1942539,VA,22601,1840 Amherst St,Winchester
62,Sentara Potomac Hospital Emergency: Lopez R MD,"2300 Opitz Blvd, Woodbridge, VA 22191",sentara.com,"JPP7+RH Woodbridge, VA",,,"https://www.google.com/maps/place/Sentara+Potomac+Hospital+Emergency:+Lopez+R+MD/@39.0204529,-79.6700073,7z/data=!4m9!1m3!2m2!1semergency+room+virginia!6e2!3m4!1s0x89b655fd2f2fa4a7:0xa4d028ff5b65c0a2!8m2!3d38.6370534!4d-77.2860819?hl=en",-77.286438,38.6369926,VA,22191,2300 Opitz Blvd,Woodbridge
63,Carilion New River Valley Medical Center: Emergency Room,"2900 Lamb Cir, Christiansburg, VA 24073",carilionclinic.org,"3FQV+CH Radford, Virginia",2.5,16,"https://www.google.com/maps/place/Carilion+New+River+Valley+Medical+Center:+Emergency+Room/@39.0204529,-79.6700073,7z/data=!4m9!1m3!2m2!1semergency+room+virginia!6e2!3m4!1s0x884ded8733f36fc7:0xbef6330186fe5007!8m2!3d37.088607!4d-80.5061205?hl=en",-80.5055434,37.088554,VA,24073,2900 Lamb Cir,Christiansburg
64,Sovah Health - Danville,"142 S Main St, Danville, VA 24541",danvilleregional.com,"HHHW+83 Danville, Virginia",1.7,33,"https://www.google.com/maps/place/Sovah+Health+-+Danville/@39.0204529,-79.6700073,7z/data=!4m9!1m3!2m2!1semergency+room+virginia!6e2!3m4!1s0x8852b367d44d5305:0xe8ebff9d598e2f2b!8m2!3d36.5783666!4d-79.4047591?hl=en",-79.4055025,36.5776731,VA,24541,142 S Main St,Danville
65,National Association of Urban Hospital,"21351 Gentry Dr # 210, Sterling, VA 20166",nauh.org,"2HGV+29 Sterling, Virginia",,,"https://www.google.com/maps/place/National+Association+of+Urban+Hospital/@39.0204529,-79.6700073,7z/data=!4m9!1m3!2m2!1semergency+room+virginia!6e2!3m4!1s0x89b639beb828a259:0xc716944ee3e95122!8m2!3d39.0250908!4d-77.4065373?hl=en",-77.407372,39.0249579,VA,20166,21351 Gentry Dr # 210,Sterling
66,Inova Heart and Vascular Institute - Inova Loudoun Hospital,"44035 Riverside Pkwy #120, Leesburg, VA 20176",inovaheart.org,"3GGC+3J Leesburg, Virginia",,,"https://www.google.com/maps/place/Inova+Heart+and+Vascular+Institute+-+Inova+Loudoun+Hospital/@39.0204529,-79.6700073,7z/data=!4m9!1m3!2m2!1semergency+room+virginia!6e2!3m4!1s0x89b63c0c3dca5fbd:0xbcacea0210b1c143!8m2!3d39.0752456!4d-77.4784839?hl=en",-77.4784839,39.0752456,VA,20176,44035 Riverside Pkwy #120,Leesburg
67,LewisGale Medical Center Cave Spring ER,"2706 Ogden Rd, Roanoke, VA 24018",lewisgale.com,"62G9+RQ Roanoke, Virginia",3.4,126,"https://www.google.com/maps/place/LewisGale+Medical+Center+Cave+Spring+ER/@39.0204529,-79.6700073,7z/data=!4m9!1m3!2m2!1semergency+room+virginia!6e2!3m4!1s0x884d0d0204501705:0xbe3ff248ac32f7d6!8m2!3d37.227074!4d-79.980531?hl=en",-79.9804116,37.2270499,VA,24018,2706 Ogden Rd,Roanoke
68,Martinsburg VA Medical Center Emergency Room,"510 Butler Ave, Martinsburg, WV 25405",martinsburg.va.gov,"C39Q+2R Baker Heights, Tuscarora, WV",4.7,3,"https://www.google.com/maps/place/Martinsburg+VA+Medical+Center+Emergency+Room/@39.0204529,-79.6700073,7z/data=!4m9!1m3!2m2!1semergency+room+virginia!6e2!3m4!1s0x89c9ff46a2877cbf:0x9bf11a1a5a8beb9!8m2!3d39.4175089!4d-77.9104953?hl=en",-77.9111682,39.4175143,WV,25405,510 Butler Ave,Martinsburg
69,Adventist HealthCare Germantown Emergency Center,"19731 Germantown Rd, Germantown, MD 20874",adventisthealthcare.com,"5PHP+RH Germantown, Maryland",2.9,76,"https://www.google.com/maps/place/Adventist+HealthCare+Germantown+Emergency+Center/@39.0204529,-79.6700073,7z/data=!4m9!1m3!2m2!1semergency+room+virginia!6e2!3m4!1s0x89b62c151122a343:0xd36cf15407496fb6!8m2!3d39.1795929!4d-77.2635637?hl=en",-77.2635936,39.1796122,MD,20874,19731 Germantown Rd,Germantown
70,Wythe County Community Hospital: Emergency Room,"600 W Ridge Rd, Wytheville, VA 24382",wcch.org,"XW33+R5 Wytheville, Virginia",1.3,3,"https://www.google.com/maps/place/Wythe+County+Community+Hospital:+Emergency+Room/@36.9546201,-83.3382151,7z/data=!4m9!1m3!2m2!1semergency+room+virginia!6e2!3m4!1s0x8851e147d5332241:0xcff444747ef98aff!8m2!3d36.9546201!4d-81.0970042?hl=en",-81.0968748,36.9547734,VA,24382,600 W Ridge Rd,Wytheville
71,Riverside Walter Reed Hospital: Emergency Room,"7519 Hospital Dr, Gloucester, VA 23061",riversideonline.com,"CF95+W2 Gloucester, Virginia",2,4,"https://www.google.com/maps/place/Riverside+Walter+Reed+Hospital:+Emergency+Room/@39.0204529,-79.6700073,7z/data=!4m9!1m3!2m2!1semergency+room+virginia!6e2!3m4!1s0x89b09c7e6ff7fb2f:0x4a79dac27bf7a7f1!8m2!3d37.4198267!4d-76.5423821?hl=en",-76.5417849,37.4197332,VA,23061,7519 Hospital Dr,Gloucester
72,Novant Health UVA Culpeper Medical Center,"501 Sunset Ln, Culpeper, VA 22701",novanthealthuva.org,"FX4P+3Q Culpeper, Virginia",3.1,51,"https://www.google.com/maps/place/Novant+Health+UVA+Culpeper+Medical+Center/@39.0204529,-79.6700073,7z/data=!4m9!1m3!2m2!1semergency+room+virginia!6e2!3m4!1s0x89b426acbac8c09b:0x1c2ec5f0397e22!8m2!3d38.4551574!4d-78.0130738?hl=en",-78.013588,38.455683,VA,22701,501 Sunset Ln,Culpeper
73,LewisGale Hospital Montgomery: Emergency Room,"3700 S Main St, Blacksburg, VA 24060",,"5HQQ+2P Blacksburg, Virginia",2.7,32,"https://www.google.com/maps/place/LewisGale+Hospital+Montgomery:+Emergency+Room/@39.0204529,-79.6700073,7z/data=!4m9!1m3!2m2!1semergency+room+virginia!6e2!3m4!1s0x884d94f568bf3f4b:0x14e2d3ab4ad1819f!8m2!3d37.1876155!4d-80.4107005?hl=en",-80.4108939,37.1872989,VA,24060,3700 S Main St,Blacksburg
74,Memorial Hospital of Martinsville & Henry County: Emergency Room,"320 Hospital Dr, Martinsville, VA 24115",martinsvillehospital.com,"M4XM+M9 Martinsville, Virginia",3,2,,-79.8654633,36.6984704,VA,24115,320 Hospital Dr,Martinsville
75,Inova Children's Hospital,"3300 Gallows Rd, Falls Church, VA 22042",inovachildrens.org,"VQ4F+J4 Falls Church, Virginia",4.2,55,"https://www.google.com/maps/place/Inova+Children's+Hospital/@39.0204529,-79.6700073,7z/data=!4m9!1m3!2m2!1semergency+room+virginia!6e2!3m4!1s0x89b64c9ac6b9265f:0x9f5b1b61e3b42608!8m2!3d38.8565446!4d-77.2271996?hl=en",-77.2281251,38.8573966,VA,22042,3300 Gallows Rd,Falls Church
76,Sentara Northern Virginia Medical Center,"2300 Opitz Blvd, Woodbridge, VA 22191",sentara.com,"JPP7+QM Woodbridge, VA",2.3,281,"https://www.google.com/maps/place/Sentara+Northern+Virginia+Medical+Center/@39.0204529,-79.6700073,7z/data=!4m9!1m3!2m2!1semergency+room+virginia!6e2!3m4!1s0x89b655e2c542047d:0x3d9cacb682fab9b5!8m2!3d38.6369431!4d-77.2858313?hl=en",-77.286438,38.6369926,VA,22191,2300 Opitz Blvd,Woodbridge
77,Inova HealthPlex - Franconia/Springfield,"6355 Walker Ln, Alexandria, VA 22310",inova.org,"QR8Q+VM Franconia, Lee, VA",4,8,"https://www.google.com/maps/place/Inova+HealthPlex+-+Franconia%2FSpringfield/@39.0204529,-79.6700073,7z/data=!4m9!1m3!2m2!1semergency+room+virginia!6e2!3m4!1s0x89b7ad6547e3a3ab:0x5eaef1c495e96e04!8m2!3d38.7671869!4d-77.1607552?hl=en",-77.1608289,38.7671668,VA,22310,6355 Walker Ln,Alexandria
78,VCU Health Community Memorial Hospital: Emergency Room,"1755 N Mecklenburg Ave, La Crosse, VA 23950",vcu-cmh.org,"PVXW+47 South Hill, Virginia",2.1,7,"https://www.google.com/maps/place/VCU+Health+Community+Memorial+Hospital:+Emergency+Room/@39.0204529,-79.6700073,7z/data=!4m9!1m3!2m2!1semergency+room+virginia!6e2!3m4!1s0x89b20868ffffffff:0xd118e61901c0fe0d!8m2!3d36.7478223!4d-78.1043607?hl=en",-78.1043607,36.7478223,VA,23950,1755 N Mecklenburg Ave,La Crosse
79,StoneSprings Hospital Center,"24440 Stone Springs Blvd, Dulles, VA 20166",stonespringshospital.com,"WFR4+3J Dulles, VA",4,345,"https://www.google.com/maps/place/StoneSprings+Hospital+Center/@39.0204529,-79.6700073,7z/data=!4m9!1m3!2m2!1semergency+room+virginia!6e2!3m4!1s0x89b641cad6a46c65:0x48e7068765254f8e!8m2!3d38.9402349!4d-77.5434678?hl=en",-77.5424483,38.9404382,VA,20166,24440 Stone Springs Blvd,Dulles
80,Riverside Tappahannock Hospital- Emergency Room,"618 Hospital Rd, Tappahannock, VA 22560",,"W42C+CF Tappahannock, VA",,,"https://www.google.com/maps/place/Riverside+Tappahannock+Hospital-+Emergency+Room/@39.0204529,-79.6700073,7z/data=!4m9!1m3!2m2!1semergency+room+virginia!6e2!3m4!1s0x89b0cb24111323d9:0x603da82d88468b61!8m2!3d37.9010973!4d-76.8788474?hl=en",-76.8782475,37.9009216,VA,22560,618 Hospital Rd,Tappahannock
81,Children's Hospital of The King's Daughters Emergency Room,"601 Children's Ln, Norfolk, VA 23507",chkd.org,"VM7X+38 Norfolk, Virginia",2.5,21,"https://www.google.com/maps/place/Children's+Hospital+of+The+King's+Daughters+Emergency+Room/@39.0204529,-79.6700073,7z/data=!4m9!1m3!2m2!1semergency+room+virginia!6e2!3m4!1s0x89ba9869c6ffffff:0x73dd681ca2a36264!8m2!3d36.8627209!4d-76.3017207?hl=en",-76.3020325,36.8621682,VA,23507,601 Children's Ln,Norfolk
82,Sentara Halifax Regional Hospital Emergency Room,"2204 Wilborn Ave, South Boston, VA 24592",sentara.com,"P36P+R8 South Boston, Virginia",3,2,"https://www.google.com/maps/place/Sentara+Halifax+Regional+Hospital+Emergency+Room/@39.0204529,-79.6700073,7z/data=!4m9!1m3!2m2!1semergency+room+virginia!6e2!3m4!1s0x89ad63e9afd013b5:0x455435525d463060!8m2!3d36.7120691!4d-78.9142323?hl=en",-78.9141935,36.7124805,VA,24592,2204 Wilborn Ave,South Boston
83,Potomac Hospital,"2300 Opitz Blvd, Woodbridge, VA 22191",sentara.com,"JPM8+RG Woodbridge, VA",3,19,"https://www.google.com/maps/place/Potomac+Hospital/@39.0204529,-79.6700073,7z/data=!4m9!1m3!2m2!1semergency+room+virginia!6e2!3m4!1s0x89b655fd2f2fa4a7:0x584854c2fa784ee1!8m2!3d38.6345618!4d-77.283636?hl=en",-77.286438,38.6369926,VA,22191,2300 Opitz Blvd,Woodbridge
84,Bon Secours Maryview Medical Center Emergency Department,"3636 High St, Portsmouth, VA 23707",bonsecours.com,"RMP3+C4 Portsmouth, Virginia",2.2,5,"https://www.google.com/maps/place/Bon+Secours+Maryview+Medical+Center+Emergency+Department/@39.0204529,-79.6700073,7z/data=!4m9!1m3!2m2!1semergency+room+virginia!6e2!3m4!1s0x89baa20e21cd7889:0x396997f1e3385fc2!8m2!3d36.8360332!4d-76.3472422?hl=en",-76.3472422,36.8360332,VA,23707,3636 High St,Portsmouth
85,Novant Health UVA Prince William Medical Center,"8700 Sudley Rd, Manassas, VA 20110",novanthealthuva.org,"QG87+V2 Manassas, Virginia",2.5,218,"https://www.google.com/maps/place/Novant+Health+UVA+Prince+William+Medical+Center/@39.0204529,-79.6700073,7z/data=!4m9!1m3!2m2!1semergency+room+virginia!6e2!3m4!1s0x89b65c6161147a75:0x959538e9448d50e0!8m2!3d38.7672467!4d-77.4874134?hl=en",-77.4872257,38.7671914,VA,20110,8700 Sudley Rd,Manassas
86,Inova HealthPlex – Ashburn,"22505 Landmark Ct, Ashburn, VA 20148",,"XGW9+2M Ashburn, Virginia",2,8,"https://www.google.com/maps/place/Inova+HealthPlex+%E2%80%93+Ashburn/@39.0204529,-79.6700073,7z/data=!4m9!1m3!2m2!1semergency+room+virginia!6e2!3m4!1s0x89b63f486d7426b9:0xd394837168d4d513!8m2!3d38.9950004!4d-77.4807998?hl=en",-77.4808851,38.9951129,VA,20148,22505 Landmark Ct,Ashburn
87,Inova,"1603 Village Market Blvd SE, Leesburg, VA 20175",inova.org,"3FQG+8X Leesburg, Virginia",,,"https://www.google.com/maps/place/Inova/@39.0204529,-79.6700073,7z/data=!4m9!1m3!2m2!1semergency+room+virginia!6e2!3m4!1s0x89b63db6b6226741:0x970134382dd6b847!8m2!3d39.0883514!4d-77.5225289?hl=en",-77.5250827,39.0896547,VA,20175,1603 Village Market Blvd SE,Leesburg
88,Sentara Belleharbour: Emergency Room,"3920 Bridge Rd, Suffolk, VA 23435",sentara.com,"VH72+R2 Suffolk, Virginia",3.6,7,"https://www.google.com/maps/place/Sentara+Belleharbour:+Emergency+Room/@39.0204529,-79.6700073,7z/data=!4m9!1m3!2m2!1semergency+room+virginia!6e2!3m4!1s0x89ba9ff95152f9b7:0x53633386c5e04f2a!8m2!3d36.8645778!4d-76.4499217?hl=en",-76.4499069,36.8645947,VA,23435,3920 Bridge Rd,Suffolk
89,Bedford Memorial Hospital: Emergency Room,"1613 Oakwood St, Bedford, VA 24523",bedfordmemorial.org,"9F2J+HX Bedford, Center, VA",,,"https://www.google.com/maps/place/Bedford+Memorial+Hospital:+Emergency+Room/@39.0204529,-79.6700073,7z/data=!4m9!1m3!2m2!1semergency+room+virginia!6e2!3m4!1s0x884d2fd2f06aaaab:0xc2f03903663647c1!8m2!3d37.3514019!4d-79.5175735?hl=en",-79.5175735,37.3514019,VA,24523,1613 Oakwood St,Bedford
90,Bon Secours Health Center : Emergency Room,"5818 Harbour View Blvd, Suffolk, VA 23435",,"VH95+H5 Suffolk, Virginia",2.4,24,"https://www.google.com/maps/place/Bon+Secours+Health+Center+:+Emergency+Room/@39.0204529,-79.6700073,7z/data=!4m9!1m3!2m2!1semergency+room+virginia!6e2!3m4!1s0x89ba9ff1d50383a3:0x1c5920ac58d16c06!8m2!3d36.8688897!4d-76.4420715?hl=en",-76.4429499,36.8693984,VA,23435,5818 Harbour View Blvd,Suffolk
91,Chesapeake Regional Medical Center Emergency Room,"736 N Battlefield Blvd, Chesapeake, VA 23320",chesapeakeregional.com,"PQW3+69 Chesapeake, Virginia",2.5,54,"https://www.google.com/maps/place/Chesapeake+Regional+Medical+Center+Emergency+Room/@39.0204529,-79.6700073,7z/data=!4m9!1m3!2m2!1semergency+room+virginia!6e2!3m4!1s0x89babb6095ddda63:0x8701f9673a5cf23b!8m2!3d36.7455791!4d-76.246595?hl=en",-76.2457816,36.746263,VA,23320,736 N Battlefield Blvd,Chesapeake
92,LewisGale Hospital Alleghany: Emergency Room,"1 Arh Ln, Low Moor, VA 24457",lewisgale.com,"Q4R9+PJ Low Moor, Jackson River, VA",,,"https://www.google.com/maps/place/LewisGale+Hospital+Alleghany:+Emergency+Room/@39.0204529,-79.6700073,7z/data=!4m9!1m3!2m2!1semergency+room+virginia!6e2!3m4!1s0x884cee79452e3cd7:0x85352c8932450e68!8m2!3d37.7917929!4d-79.8809172?hl=en",-79.8809581,37.7919344,VA,24457,1 Arh Ln,Low Moor
93,Bon Secours St. Francis Medical Center Emergency Room,"13710 St Francis Blvd, Midlothian, VA 23114",bonsecours.com,"F88R+M8 Charter Colony, Virginia",2.3,7,"https://www.google.com/maps/place/Bon+Secours+St.+Francis+Medical+Center+Emergency+Room/@39.0204529,-79.6700073,7z/data=!4m9!1m3!2m2!1semergency+room+virginia!6e2!3m4!1s0x89b17185edf39e25:0x952fb859dd79e6f6!8m2!3d37.4666452!4d-77.6591872?hl=en",-77.6592669,37.4667786,VA,23114,13710 St Francis Blvd,Midlothian
94,Spotsylvania Regional Medical Center,"4600 Spotsylvania Pkwy, Fredericksburg, VA 22408",spotsrmc.com,"6G83+XJ Fredericksburg, Virginia",3.9,497,"https://www.google.com/maps/place/Spotsylvania+Regional+Medical+Center/@39.0204529,-79.6700073,7z/data=!4m9!1m3!2m2!1semergency+room+virginia!6e2!3m4!1s0x89b6c6c72b505831:0xc9c96a2de2857165!8m2!3d38.2174562!4d-77.4958841?hl=en",-77.4961447,38.2181996,VA,22408,4600 Spotsylvania Pkwy,Fredericksburg
95,Fauquier Health,"500 Hospital Dr, Warrenton, VA 20186",fauquierhealth.org,"P56R+WF Warrenton, Center, VA",2.4,75,"https://www.google.com/maps/place/Fauquier+Health/@39.0204529,-79.6700073,7z/data=!4m9!1m3!2m2!1semergency+room+virginia!6e2!3m4!1s0x89b67db9f9437db7:0x35cedcdc31dc1967!8m2!3d38.7122956!4d-77.8087981?hl=en",-77.8090274,38.7124465,VA,20186,500 Hospital Dr,Warrenton
96,Carilion Stonewall Jackson Hospital: Emergency Room,"1 Health Cir, Lexington, VA 24450",carilionclinic.org,"QHH5+JF Lexington, Virginia",1.7,3,"https://www.google.com/maps/place/Carilion+Stonewall+Jackson+Hospital:+Emergency+Room/@39.0204529,-79.6700073,7z/data=!4m9!1m3!2m2!1semergency+room+virginia!6e2!3m4!1s0x884ccbbdf5acd55b:0xa3fa8f61f448f2a1!8m2!3d37.7790083!4d-79.4413019?hl=en",-79.4412043,37.7788688,VA,24450,1 Health Cir,Lexington
97,Centra Southside Community Hospital: Emergency Room,"800 Oak St, Farmville, VA 23901",centrahealth.com,"8H2W+VJ Farmville, Virginia",,,"https://www.google.com/maps/place/Centra+Southside+Community+Hospital:+Emergency+Room/@39.0204529,-79.6700073,7z/data=!4m9!1m3!2m2!1semergency+room+virginia!6e2!3m4!1s0x89b24ebf74ffffff:0x41b6aeb0520fd26c!8m2!3d37.302246!4d-78.4034182?hl=en",-78.4039938,37.3021655,VA,23901,800 Oak St,Farmville
98,Southside Emergency Care Center at Colonial Heights,"60 E Roslyn Ct, Colonial Heights, VA 23834",bonsecours.com,"6JR4+JF Colonial Heights, Virginia",2.3,51,"https://www.google.com/maps/place/Southside+Emergency+Care+Center+at+Colonial+Heights/@39.0204529,-79.6700073,7z/data=!4m9!1m3!2m2!1semergency+room+virginia!6e2!3m4!1s0x89b1a77c138c346b:0x255dffc5ecc3ca2a!8m2!3d37.241509!4d-77.3938515?hl=en",-77.3938515,37.241509,VA,23834,60 E Roslyn Ct,Colonial Heights
99,Sentara Obici Hospital Emergency Room,"2800 Godwin Blvd, Suffolk, VA 23434",sentara.com,"QCF9+FF Suffolk, Virginia",1,2,"https://www.google.com/maps/place/Sentara+Obici+Hospital+Emergency+Room/@39.0204529,-79.6700073,7z/data=!4m9!1m3!2m2!1semergency+room+virginia!6e2!3m4!1s0x89b00e92323901c3:0xd0b065e8c242f003!8m2!3d36.7736511!4d-76.5813668?hl=en",-76.5812482,36.7727954,VA,23434,2800 Godwin Blvd,Suffolk
100,Sentara Port Warwick: Emergency Room,"11803 Jefferson Ave, Newport News, VA 23606",sentara.com,"3GP8+2X Newport News, Virginia",1.9,9,"https://www.google.com/maps/place/Sentara+Port+Warwick:+Emergency+Room/@39.0204529,-79.6700073,7z/data=!4m9!1m3!2m2!1semergency+room+virginia!6e2!3m4!1s0x89b078ed83c00d6d:0x6f132b8c2bf837e3!8m2!3d37.085121!4d-76.482601?hl=en",-76.4826061,37.0851238,VA,23606,11803 Jefferson Ave,Newport News
101,TriCities Emergency Center,"1700 Temple Pkwy, Prince George, VA 23875",tricitieser.com,"7J2H+9H Prince George, Virginia",2.8,143,"https://www.google.com/maps/place/TriCities+Emergency+Center/@39.0204529,-79.6700073,7z/data=!4m9!1m3!2m2!1semergency+room+virginia!6e2!3m4!1s0x89b1a88444ff9843:0x1111ac0b3b3d10cf!8m2!3d37.2509466!4d-77.3711126?hl=en",-77.3711129,37.2509495,VA,23875,1700 Temple Pkwy,Prince George
102,Centra Health: Emergency Room,"1901 Tate Springs Rd, Lynchburg, VA 24501",centrahealth.com,"CR9H+3H Lynchburg, Virginia",2.6,5,"https://www.google.com/maps/place/Centra+Health:+Emergency+Room/@39.0204529,-79.6700073,7z/data=!4m9!1m3!2m2!1semergency+room+virginia!6e2!3m4!1s0x89b2d99703c2c7cd:0x66edb628f60d7d33!8m2!3d37.4177048!4d-79.1711115?hl=en",-79.1717596,37.4166183,VA,24501,1901 Tate Springs Rd,Lynchburg
103,West Creek Emergency Center,"12720 Tuckahoe Creek Ct, Richmond, VA 23238",westcreeker.com,"J8GQ+CQ Richmond, Virginia",4,65,"https://www.google.com/maps/place/West+Creek+Emergency+Center/@39.0204529,-79.6700073,7z/data=!4m9!1m3!2m2!1semergency+room+virginia!6e2!3m4!1s0x89b16968d5e39f4f:0xc2eab65af1dafd42!8m2!3d37.6260055!4d-77.660594?hl=en",-77.6606368,37.6259737,VA,23238,12720 Tuckahoe Creek Ct,Richmond
104,Riverside Regional Medical Center Emergency Room,"500 J Clyde Morris Blvd, Newport News, VA 23601",riversideonline.com,"3G78+2Q Newport News, Virginia",1.7,35,"https://www.google.com/maps/place/Riverside+Regional+Medical+Center+Emergency+Room/@39.0204529,-79.6700073,7z/data=!4m9!1m3!2m2!1semergency+room+virginia!6e2!3m4!1s0x89b0785ccd9b97f7:0x80c03c2d4d15b467!8m2!3d37.0626107!4d-76.4830208?hl=en",-76.4833383,37.0634596,VA,23601,500 J Clyde Morris Blvd,Newport News
105,Novant Health UVA Haymarket Medical Center,"15225 Heathcote Blvd, Haymarket, VA 20169",novanthealthuva.org,"R9C5+83 Haymarket, Gainesville, VA",2.8,111,"https://www.google.com/maps/place/Novant+Health+UVA+Haymarket+Medical+Center/@39.0204529,-79.6700073,7z/data=!4m9!1m3!2m2!1semergency+room+virginia!6e2!3m4!1s0x89b6661b3eb1b2ed:0x677327a10eaaebd8!8m2!3d38.8208595!4d-77.6422741?hl=en",-77.6424818,38.8207582,VA,20169,15225 Heathcote Blvd,Haymarket
106,Sentara Norfolk General Hospital Emergency Room,"600 Gresham Dr, Norfolk, VA 23507",sentara.com,"VM6W+H9 Norfolk, Virginia",1.4,12,"https://www.google.com/maps/place/Sentara+Norfolk+General+Hospital+Emergency+Room/@39.0204529,-79.6700073,7z/data=!4m9!1m3!2m2!1semergency+room+virginia!6e2!3m4!1s0x89ba9868376a4edf:0x2b77f04b47571cd2!8m2!3d36.8614543!4d-76.3040083?hl=en",-76.3035324,36.8623753,VA,23507,600 Gresham Dr,Norfolk
107,Swift Creek ER,"14720 Hancock Village St, Chesterfield, VA 23832",swiftcreeker.com,"C82C+WH Chesterfield, Dale, VA",3.6,97,"https://www.google.com/maps/place/Swift+Creek+ER/@39.0204529,-79.6700073,7z/data=!4m9!1m3!2m2!1semergency+room+virginia!6e2!3m4!1s0x89b176c75ced2fff:0xd3f548f6d5399dea!8m2!3d37.4022686!4d-77.6785421?hl=en",-77.6783525,37.4023576,VA,23832,14720 Hancock Village St,Chesterfield
108,Southside Regional Medical Center Emergency Department,"200 Medical Park Blvd, Petersburg, VA 23805",bonsecours.com,"5JJR+X6 Petersburg, Virginia",1,4,"https://www.google.com/maps/place/Southside+Regional+Medical+Center+Emergency+Department/@39.0204529,-79.6700073,7z/data=!4m9!1m3!2m2!1semergency+room+virginia!6e2!3m4!1s0x89b1af72716bdca1:0x7e41739e26a2408a!8m2!3d37.1824222!4d-77.3594222?hl=en",-77.3594222,37.1824222,VA,23805,200 Medical Park Blvd,Petersburg
109,Riverside Doctors' Hospital Williamsburg: Emergency Room,"1500 Commonwealth Ave, Williamsburg, VA 23185",riversideonline.com,"782J+8R Williamsburg, Virginia",3.7,7,"https://www.google.com/maps/place/Riverside+Doctors'+Hospital+Williamsburg:+Emergency+Room/@39.0204529,-79.6700073,7z/data=!4m9!1m3!2m2!1semergency+room+virginia!6e2!3m4!1s0x89b088430a2d46bb:0xd73e82d3ce68dfac!8m2!3d37.2508489!4d-76.6679665?hl=en",-76.6685372,37.2508676,VA,23185,1500 Commonwealth Ave,Williamsburg
110,Bon Secours Richmond Community Hospital: Emergency Room,"1500 N 28th St, Richmond, VA 23223",,"GHQV+V5 Richmond, Virginia",,,"https://www.google.com/maps/place/Bon+Secours+Richmond+Community+Hospital:+Emergency+Room/@39.0204529,-79.6700073,7z/data=!4m9!1m3!2m2!1semergency+room+virginia!6e2!3m4!1s0x89b110c155155555:0x6989b1630ecc7c4e!8m2!3d37.5397404!4d-77.4071089?hl=en",-77.4070141,37.5401504,VA,23223,1500 N 28th St,Richmond
111,Southern Virginia Regional Medical Center Emergency Department,"727 N Main St, Emporia, VA 23847",bonsecours.com,"PF27+M2 Emporia, Virginia",,,"https://www.google.com/maps/place/Southern+Virginia+Regional+Medical+Center+Emergency+Department/@39.0204529,-79.6700073,7z/data=!4m9!1m3!2m2!1semergency+room+virginia!6e2!3m4!1s0x89b1de408c7e3ff5:0x883a7fd7befc69cc!8m2!3d36.7017452!4d-77.537429?hl=en",-77.5377586,36.7017264,VA,23847,727 N Main St,Emporia
112,Sentara Williamsburg Regional Medical Center Emergency Room,"100 Sentara Cir, Williamsburg, VA 23188",sentara.com,"87P5+9V Williamsburg, Virginia",2.4,10,"https://www.google.com/maps/place/Sentara+Williamsburg+Regional+Medical+Center+Emergency+Room/@39.0204529,-79.6700073,7z/data=!4m9!1m3!2m2!1semergency+room+virginia!6e2!3m4!1s0x89b08c223e8b1b5d:0x94ef9d559317cd9e!8m2!3d37.3359966!4d-76.7402523?hl=en",-76.7410608,37.3366689,VA,23188,100 Sentara Cir,Williamsburg
113,Hanover Emergency Center,"9275 Chamberlayne Rd, Mechanicsville, VA 23116",hanoverer.com,"MJ22+Q9 Mechanicsville, Virginia",3.3,165,"https://www.google.com/maps/place/Hanover+Emergency+Center/@39.0204529,-79.6700073,7z/data=!4m9!1m3!2m2!1semergency+room+virginia!6e2!3m4!1s0x89b13d42fbe5caa1:0xe1215eaac294255e!8m2!3d37.6519562!4d-77.3990142?hl=en",-77.3990982,37.6520045,VA,23116,9275 Chamberlayne Rd,Mechanicsville
114,Sentara Leigh Hospital Emergency Room,"830 Kempsville Rd, Norfolk, VA 23502",sentara.com,"VR25+8Q Norfolk, Virginia",2.5,8,"https://www.google.com/maps/place/Sentara+Leigh+Hospital+Emergency+Room/@39.0204529,-79.6700073,7z/data=!4m9!1m3!2m2!1semergency+room+virginia!6e2!3m4!1s0x89ba9672a686eb25:0xcf2bbde10f70e70b!8m2!3d36.8508688!4d-76.1905915?hl=en",-76.1903378,36.850608,VA,23502,830 Kempsville Rd,Norfolk
115,Inova Loudoun Hospital,"44045 Riverside Pkwy, Leesburg, VA 20176",inova.org,"3GFF+F4 Leesburg, Virginia",2.9,156,"https://www.google.com/maps/place/Inova+Loudoun+Hospital/@39.0204529,-79.6700073,7z/data=!4m9!1m3!2m2!1semergency+room+virginia!6e2!3m4!1s0x89b63c0c38ea7219:0x2bedd03869965bae!8m2!3d39.0736973!4d-77.4771957?hl=en",-77.477535,39.074045,VA,20176,44045 Riverside Pkwy,Leesburg
116,Sentara Careplex Hospital Emergency Room,"3000 Coliseum Dr, Hampton, VA 23666",sentara.com,"3J45+HQ Hampton, Virginia",2.3,16,"https://www.google.com/maps/place/Sentara+Careplex+Hospital+Emergency+Room/@39.0204529,-79.6700073,7z/data=!4m9!1m3!2m2!1semergency+room+virginia!6e2!3m4!1s0x89ba830c67f002eb:0xc2c408adf6f6ca62!8m2!3d37.0564064!4d-76.3905561?hl=en",-76.3898479,37.0569034,VA,23666,3000 Coliseum Dr,Hampton
117,Augusta Health Emergency Department,"78 Medical Center Dr, Fishersville, VA 22939",augustahealth.com,"32V7+V9 Fishersville, Wayne, VA",2.7,23,"https://www.google.com/maps/place/Augusta+Health+Emergency+Department/@39.0204529,-79.6700073,7z/data=!4m9!1m3!2m2!1semergency+room+virginia!6e2!3m4!1s0x89b36059d1fa546f:0x781260d7e0c74a78!8m2!3d38.0947045!4d-78.9865804?hl=en",-78.986591,38.094358,VA,22939,78 Medical Center Dr,Fishersville
118,Johnston-Willis Hospital Emergency Room,"1401 Johnston Willis Dr, Richmond, VA 23235",,"GC64+58 Bon Air, Midlothian, VA",2.8,5,"https://www.google.com/maps/place/Johnston-Willis+Hospital+Emergency+Room/@39.0204529,-79.6700073,7z/data=!4m9!1m3!2m2!1semergency+room+virginia!6e2!3m4!1s0x89b16d6da013b3c9:0x327cf2347a2b785c!8m2!3d37.5103904!4d-77.5942377?hl=en",-77.5946377,37.5106901,VA,23235,1401 Johnston Willis Dr,Richmond
119,Centra Lynchburg General Hospital Emergency Room,"1901 Tate Springs Rd, Lynchburg, VA 24501",centrahealth.com,"CR9H+3G Lynchburg, Virginia",1.5,19,"https://www.google.com/maps/place/Centra+Lynchburg+General+Hospital+Emergency+Room/@39.0204529,-79.6700073,7z/data=!4m9!1m3!2m2!1semergency+room+virginia!6e2!3m4!1s0x89b2d9bdf0000001:0x3be89b40e1eca7e0!8m2!3d37.4176941!4d-79.1712293?hl=en",-79.1717596,37.4166183,VA,24501,1901 Tate Springs Rd,Lynchburg
120,Bon Secours Memorial Regional Medical Center: Emergency Room,"8260 Atlee Rd, Mechanicsville, VA 23116",,"JJH7+9M Mechanicsville, Virginia",1.6,14,"https://www.google.com/maps/place/Bon+Secours+Memorial+Regional+Medical+Center:+Emergency+Room/@39.0204529,-79.6700073,7z/data=!4m9!1m3!2m2!1semergency+room+virginia!6e2!3m4!1s0x89b117fa86160fdf:0x10ae43801f75b9f2!8m2!3d37.6284437!4d-77.3858694?hl=en",-77.3855554,37.6286299,VA,23116,8260 Atlee Rd,Mechanicsville
121,Emergency Hospital,"2300 Opitz Blvd, Woodbridge, VA 22191",sentara.com,"JPP7+PP Woodbridge, VA",,,"https://www.google.com/maps/place/Emergency+Hospital/@39.0204529,-79.6700073,7z/data=!4m9!1m3!2m2!1semergency+room+virginia!6e2!3m4!1s0x89b65524779041f9:0xf76033d14aa794f4!8m2!3d38.6367693!4d-77.2856955?hl=en",-77.286438,38.6369926,VA,22191,2300 Opitz Blvd,Woodbridge
122,University of Virginia Health System University Hospital Emergency Room,"1300 Jefferson Park Ave, Charlottesville, VA 22903",healthsystem.virginia.edu,"2GJ2+GQ Charlottesville, Virginia",,,,-78.501032,38.0319019,VA,22903,1300 Jefferson Park Ave,Charlottesville
123,Sentara Independence: Emergency Room,"800 Independence Blvd, Virginia Beach, VA 23455",sentara.com,"VV99+2H Virginia Beach, Virginia",2.8,16,"https://www.google.com/maps/place/Sentara+Independence:+Emergency+Room/@39.0204529,-79.6700073,7z/data=!4m9!1m3!2m2!1semergency+room+virginia!6e2!3m4!1s0x89ba94ff64c21dcb:0xc5efaf12b07009d2!8m2!3d36.8675349!4d-76.1310678?hl=en",-76.1315876,36.867626,VA,23455,800 Independence Blvd,Virginia Beach
124,Sentara Princess Anne Hospital Emergency Room,"2025 Glenn Mitchell Dr, Virginia Beach, VA 23456",sentara.com,"QWG2+CM Virginia Beach, Virginia",2.6,22,"https://www.google.com/maps/place/Sentara+Princess+Anne+Hospital+Emergency+Room/@39.0204529,-79.6700073,7z/data=!4m9!1m3!2m2!1semergency+room+virginia!6e2!3m4!1s0x89babf77f9cfde5b:0xbe0273946e0585a8!8m2!3d36.77601!4d-76.0983367?hl=en",-76.0978916,36.7753343,VA,23456,2025 Glenn Mitchell Dr,Virginia Beach
125,Parham Doctors' Hospital: Emergency Room,"7700 E Parham Rd, Richmond, VA 23294",,"JFJF+FG Laurel, Brookland, VA",3,4,"https://www.google.com/maps/place/Parham+Doctors'+Hospital:+Emergency+Room/@39.0204529,-79.6700073,7z/data=!4m9!1m3!2m2!1semergency+room+virginia!6e2!3m4!1s0x89b1150d4aa9a0b1:0x166ee958ef9fba68!8m2!3d37.631146!4d-77.5261788?hl=en",-77.5252618,37.6331141,VA,23294,7700 E Parham Rd,Richmond
126,Sentara Martha Jefferson Hospital Emergency Room,"500 Martha Jefferson Dr, Charlottesville, VA 22911",sentara.com,"2HC4+R2 Charlottesville, Virginia",2.4,5,"https://www.google.com/maps/place/Sentara+Martha+Jefferson+Hospital+Emergency+Room/@39.0204529,-79.6700073,7z/data=!4m9!1m3!2m2!1semergency+room+virginia!6e2!3m4!1s0x89b388e905ea0591:0x21090ddf4d137eb4!8m2!3d38.022029!4d-78.4448844?hl=en",-78.4434274,38.0225459,VA,22911,500 Martha Jefferson Dr,Charlottesville
127,Sentara Martha Jefferson: Emergency Room,"3263 Proffit Rd, Charlottesville, VA 22911",sentara.com,"4HM8+2M Forest Lakes, Rivanna, VA",3.4,5,"https://www.google.com/maps/place/Sentara+Martha+Jefferson:+Emergency+Room/@39.0204529,-79.6700073,7z/data=!4m9!1m3!2m2!1semergency+room+virginia!6e2!3m4!1s0x89b4770331900527:0x8db9f3d73b7fa61a!8m2!3d38.1326135!4d-78.433274?hl=en",-78.433361,38.1326707,VA,22911,3263 Proffit Rd,Charlottesville
128,Sentara Virginia Beach Hospital Emergency Room,"1060 First Colonial Road, Virginia Beach, VA 23454",sentara.com,"VX7F+JG Virginia Beach, Virginia",2.6,12,"https://www.google.com/maps/place/Sentara+Virginia+Beach+Hospital+Emergency+Room/@39.0204529,-79.6700073,7z/data=!4m9!1m3!2m2!1semergency+room+virginia!6e2!3m4!1s0x89baebbad19b140d:0xb134bf541cc22b40!8m2!3d36.8640457!4d-76.0262331?hl=en",-76.0274242,36.8641832,VA,23454,1060 First Colonial Road,Virginia Beach
129,Page Memorial Hospital - Emergency Room,"200 Memorial Dr, Luray, VA 22835",valleyhealthlink.com,"MG6J+VG Luray, Virginia",1,1,"https://www.google.com/maps/place/Page+Memorial+Hospital+-+Emergency+Room/@39.0204529,-79.6700073,7z/data=!4m9!1m3!2m2!1semergency+room+virginia!6e2!3m4!1s0x89b44e06dac947b1:0xc697bbf1e1641b0d!8m2!3d38.6621256!4d-78.468735?hl=en",-78.4685098,38.6629142,VA,22835,200 Memorial Dr,Luray
130,Sentara RMH Medical Center Emergency Room,"2010 Health Campus Dr, Harrisonburg, VA 22801",sentara.com,"C43W+X4 Harrisonburg, Virginia",2.5,30,"https://www.google.com/maps/place/Sentara+RMH+Medical+Center+Emergency+Room/@39.0204529,-79.6700073,7z/data=!4m9!1m3!2m2!1semergency+room+virginia!6e2!3m4!1s0x89b492665ab4eb4b:0x9aa9c64ac354e367!8m2!3d38.4049535!4d-78.8547248?hl=en",-78.8552715,38.4050666,VA,22801,2010 Health Campus Dr,Harrisonburg
131,University of Virginia Health System University Hospital Emergency Room,"1215 Lee St, Charlottesville, VA 22908",uvahealth.com,"2GJ2+GQ Charlottesville, Virginia",3.1,35,,-78.4988225,38.0311849,VA,22908,1215 Lee St,Charlottesville
132,Chippenham Hospital Emergency Room,"7101 Jahnke Rd, Richmond, VA 23225",hcavirginia.com,"GF7F+RJ Richmond, Virginia",2.7,11,"https://www.google.com/maps/place/Chippenham+Hospital+Emergency+Room/@39.0204529,-79.6700073,7z/data=!4m9!1m3!2m2!1semergency+room+virginia!6e2!3m4!1s0x89b112f0343acec5:0x6a388b85512f5826!8m2!3d37.5146011!4d-77.5259529?hl=en",-77.5263617,37.513886,VA,23225,7101 Jahnke Rd,Richmond
133,Fauquier Health: Emergency Room,"500 Hospital Dr, Warrenton, VA 20186",fauquierhealth.org,"P57R+29 Warrenton, Center, VA",3.7,3,"https://www.google.com/maps/place/Fauquier+Health:+Emergency+Room/@39.0204529,-79.6700073,7z/data=!4m9!1m3!2m2!1semergency+room+virginia!6e2!3m4!1s0x89b67db9fb82f8ef:0x8fbf57527d0d4468!8m2!3d38.7126238!4d-77.8090975?hl=en",-77.8090274,38.7124465,VA,20186,500 Hospital Dr,Warrenton
134,Inova Fair Oaks Hospital Children's Emergency Room,"3600 Joseph Siewick Dr, Fairfax, VA 22033",inovachildrens.org,"VJM9+JX Fairfax, Virginia",,,"https://www.google.com/maps/place/Inova+Fair+Oaks+Hospital+Children's+Emergency+Room/@39.0204529,-79.6700073,7z/data=!4m9!1m3!2m2!1semergency+room+virginia!6e2!3m4!1s0x89b6470d6224441d:0xe6841b4877988f52!8m2!3d38.8841221!4d-77.3800608?hl=en",-77.3800608,38.8841221,VA,22033,3600 Joseph Siewick Dr,Fairfax
135,Novant Health UVA Health System Culpeper Medical Center: Emergency Room,"501 Sunset Ln, Culpeper, VA 22701",novanthealthuva.org,"FX4P+4M Culpeper, Virginia",2.3,3,,-78.013588,38.455683,VA,22701,501 Sunset Ln,Culpeper
136,Hosplst Grp At Virginia Hospital,"1701 N George Mason Dr, Arlington, VA 22205",virginiahospitalcenter.com,"VVQF+J2 Arlington, Mason, VA",5,1,"https://www.google.com/maps/place/Hosplst+Grp+At+Virginia+Hospital/@39.0204529,-79.6700073,7z/data=!4m9!1m3!2m2!1semergency+room+virginia!6e2!3m4!1s0x89b7b449ebcbce59:0xad8679529457bc4a!8m2!3d38.8890755!4d-77.1274832?hl=en",-77.1274832,38.8890755,VA,22205,1701 N George Mason Dr,Arlington
137,Fort Belvoir Community Hospital Emergency Room,"9300 DeWitt Loop, Fort Belvoir, VA 22060",fbch.capmed.mil,"PV44+C9 Fort Belvoir, Mt Vernon, VA",1.6,30,"https://www.google.com/maps/place/Fort+Belvoir+Community+Hospital+Emergency+Room/@39.0204529,-79.6700073,7z/data=!4m9!1m3!2m2!1semergency+room+virginia!6e2!3m4!1s0x89b7ac6394e750c9:0x89c3f53c450fe828!8m2!3d38.7060798!4d-77.1440461?hl=en",-77.1433401,38.7052552,VA,22060,9300 DeWitt Loop,Fort Belvoir
138,Stafford Hospital Emergency Room,"101 Hospital Center Blvd, Stafford, VA 22554",marywashingtonhealthcare.com,"CH8R+2W Stafford, Virginia",3,16,"https://www.google.com/maps/place/Stafford+Hospital+Emergency+Room/@39.0204529,-79.6700073,7z/data=!4m9!1m3!2m2!1semergency+room+virginia!6e2!3m4!1s0x89b6ef16a717e681:0x101f571cd434fff6!8m2!3d38.4151102!4d-77.407654?hl=en",-77.4074155,38.4151022,VA,22554,101 Hospital Center Blvd,Stafford
139,Virginia Hospital Center : ICU,"1701 N George Mason Dr, Arlington, VA 22205",virginiahospitalcenter.com,"VVQF+JC Arlington, Mason, VA",,,,-77.1274832,38.8890755,VA,22205,1701 N George Mason Dr,Arlington
140,Warren Memorial Hospital: Emergency Room,"1000 N Shenandoah Ave, Front Royal, VA 22630",valleyhealthlink.com,"WRJ2+4H Front Royal, Virginia",5,2,"https://www.google.com/maps/place/Warren+Memorial+Hospital:+Emergency+Room/@39.0204529,-79.6700073,7z/data=!4m9!1m3!2m2!1semergency+room+virginia!6e2!3m4!1s0x89b5c42b0a811e45:0xd40d8a563633d482!8m2!3d38.9303006!4d-78.1985092?hl=en",-78.198659,38.930951,VA,22630,1000 N Shenandoah Ave,Front Royal
141,Mary Washington Hospital Emergency Room,"1001 Sam Perry Blvd, Fredericksburg, VA 22401",marywashingtonhealthcare.com,"8G68+F2 Fredericksburg, Virginia",1.7,31,"https://www.google.com/maps/place/Mary+Washington+Hospital+Emergency+Room/@39.0204529,-79.6700073,7z/data=!4m9!1m3!2m2!1semergency+room+virginia!6e2!3m4!1s0x89b6c1e36f6bc1d5:0xed7b8a3902b20f98!8m2!3d38.3111334!4d-77.4849197?hl=en",-77.4832459,38.3108853,VA,22401,1001 Sam Perry Blvd,Fredericksburg
142,Reston Hospital Center,"1850 Town Center Pkwy, Reston, VA 20190",restonhospital.com,"XJ7P+23 Reston, Hunter Mill, VA",4.2,1053,"https://www.google.com/maps/place/Reston+Hospital+Center/@39.0204529,-79.6700073,7z/data=!4m9!1m3!2m2!1semergency+room+virginia!6e2!3m4!1s0x89b6481d6d2d32ed:0x1c0ddd27d31c3d36!8m2!3d38.9625781!4d-77.3647544?hl=en",-77.363936,38.9626797,VA,20190,1850 Town Center Pkwy,Reston
143,Inova Mount Vernon Hospital Emergency Room,"2501 Parkers Ln, Alexandria, VA 22306",inova.org,"PWQF+V6 Alexandria, Mason, VA",3.5,10,"https://www.google.com/maps/place/Inova+Mount+Vernon+Hospital+Emergency+Room/@39.0204529,-79.6700073,7z/data=!4m9!1m3!2m2!1semergency+room+virginia!6e2!3m4!1s0x89b7ae424120c91b:0x611d140b9ae5ec7d!8m2!3d38.7397466!4d-77.0769752?hl=en",-77.0771323,38.7397196,VA,22306,2501 Parkers Ln,Alexandria
144,Inova Children's Hospital Emergency Room,"3300 Gallows Rd, Falls Church, VA 22042",inova.org,"VQ5F+28 Falls Church, Virginia",5,7,"https://www.google.com/maps/place/Inova+Children's+Hospital+Emergency+Room/@38.8780396,-77.6538305,10z/data=!4m8!1m2!2m1!1semergency+room+virginia!3m4!1s0x89b64c9af99b6c59:0x7becbc26893557e3!8m2!3d38.8576052!4d-77.2266808?hl=en",-77.2281251,38.8573966,VA,22042,3300 Gallows Rd,Falls Church
145,Novant Health UVA Haymarket Medical Center: Emergency Room,"15225 Heathcote Blvd, Haymarket, VA 20169",novanthealthuva.org,"R9C4+6W Haymarket, Gainesville, VA",2.9,17,"https://www.google.com/maps/place/Novant+Health+UVA+Haymarket+Medical+Center:+Emergency+Room/@38.8780396,-77.6538305,10z/data=!4m8!1m2!2m1!1semergency+room+virginia!3m4!1s0x89b666052c8e7c1d:0xf1642a78fbd8ee0f!8m2!3d38.8205777!4d-77.64274?hl=en",-77.6424818,38.8207582,VA,20169,15225 Heathcote Blvd,Haymarket
146,Inova Emergency Room - HealthPlex Franconia/Springfield,"6355 Walker Ln, Alexandria, VA 22310",inova.org,"QR8Q+VM Alexandria, Mason, VA",3.9,109,"https://www.google.com/maps/place/Inova+Emergency+Room+-+HealthPlex+Franconia%2FSpringfield/@38.8780396,-77.6538305,10z/data=!4m8!1m2!2m1!1semergency+room+virginia!3m4!1s0x89b7ad65377d09f3:0x8ac833dce0c6bebf!8m2!3d38.7672035!4d-77.1607749?hl=en",-77.1608289,38.7671668,VA,22310,6355 Walker Ln,Alexandria
147,Inova Children's Emergency Room at Loudoun Hospital,"44045 Riverside Pkwy, Leesburg, VA 20176",inova.org,"3GFC+JX Leesburg, Virginia",5,1,"https://www.google.com/maps/place/Inova+Children's+Emergency+Room+at+Loudoun+Hospital/@38.8780396,-77.6538305,10z/data=!4m8!1m2!2m1!1semergency+room+virginia!3m4!1s0x89b63d1c5bb48069:0xc68b1e1dfb2eae49!8m2!3d39.074045!4d-77.477535?hl=en",-77.477535,39.074045,VA,20176,44045 Riverside Pkwy,Leesburg
148,Sentara Lake Ridge: Emergency Room,"12825 Minnieville Rd, Lake Ridge, VA 22192",sentara.com,"MPFC+5R Lake Ridge, Virginia",4.3,14,"https://www.google.com/maps/place/Sentara+Lake+Ridge:+Emergency+Room/@38.8780396,-77.6538305,10z/data=!4m8!1m2!2m1!1semergency+room+virginia!3m4!1s0x89b6542ef8a48673:0x749817d7d3dbebbb!8m2!3d38.6728927!4d-77.2779043?hl=en",-77.2779592,38.6728765,VA,22192,12825 Minnieville Rd,Lake Ridge
149,Novant Health UVA Prince William Medical Center: Emergency Room,"8700 Sudley Rd, Manassas, VA 20110",novanthealthuva.org,"QG86+MP Manassas, Virginia",2.1,17,"https://www.google.com/maps/place/Novant+Health+UVA+Prince+William+Medical+Center:+Emergency+Room/@38.8780396,-77.6538305,10z/data=!4m8!1m2!2m1!1semergency+room+virginia!3m4!1s0x89b65c6161b2adbb:0xf29ef7bede91aee4!8m2!3d38.7667454!4d-77.4881631?hl=en",-77.4872257,38.7671914,VA,20110,8700 Sudley Rd,Manassas
150,Inova Emergency Room - HealthPlex Lorton,"9321 Sanger St, Lorton, VA 22079",inova.org,"PQ3F+26 Lorton, Mt Vernon, VA",3.9,13,"https://www.google.com/maps/place/Inova+Emergency+Room+-+HealthPlex+Lorton/@38.8780396,-77.6538305,10z/data=!4m8!1m2!2m1!1semergency+room+virginia!3m4!1s0x89b65362ed66d82f:0xe9b1f94d47732549!8m2!3d38.702606!4d-77.2269583?hl=en",-77.2269535,38.702536,VA,22079,9321 Sanger St,Lorton
151,Inova Fairfax Hospital Emergency Room,"3300 Gallows Rd, Falls Church, VA 22042",inova.org,"VQ5F+35 Falls Church, Virginia",2.6,43,"https://www.google.com/maps/place/Inova+Fairfax+Hospital+Emergency+Room/@38.8780396,-77.6538305,10z/data=!4m8!1m2!2m1!1semergency+room+virginia!3m4!1s0x89b64c9acf17b8d5:0x5041334425a07810!8m2!3d38.8576978!4d-77.2270133?hl=en",-77.2281251,38.8573966,VA,22042,3300 Gallows Rd,Falls Church
152,Inova Alexandria Hospital Emergency Room,"4320 Seminary Rd, Alexandria, VA 22304",inova.org,"RVCW+V5 Alexandria, Mason, VA",2.7,38,"https://www.google.com/maps/place/Inova+Alexandria+Hospital+Emergency+Room/@38.8780396,-77.6538305,10z/data=!4m8!1m2!2m1!1semergency+room+virginia!3m4!1s0x89b7b3d830e846b5:0xf3599ff3937bbee3!8m2!3d38.822128!4d-77.1045251?hl=en",-77.1049983,38.82245,VA,22304,4320 Seminary Rd,Alexandria
153,Sentara Northern Virginia Medical Center Emergency Room,"2300 Opitz Blvd, Woodbridge, VA 22191",sentara.com,"JPP7+MQ Woodbridge, VA",1.9,47,"https://www.google.com/maps/place/Sentara+Northern+Virginia+Medical+Center+Emergency+Room/@38.8780396,-77.6538305,10z/data=!4m8!1m2!2m1!1semergency+room+virginia!3m4!1s0x89b655e29e324111:0x2af5f7b53280bbeb!8m2!3d38.6366716!4d-77.2856195?hl=en",-77.286438,38.6369926,VA,22191,2300 Opitz Blvd,Woodbridge
154,Virginia Hospital Center : Express Care,"1701 N George Mason Dr, Arlington, VA 22205",m.virginiahospitalcenter.com,"VVQF+GG Arlington, Mason, VA",,,,-77.1274832,38.8890755,VA,22205,1701 N George Mason Dr,Arlington
155,Inova Emergency Room - Reston/Herndon,"11901 Baron Cameron Ave, Reston, VA 20190",inova.org,"XJ8V+58 Reston, Hunter Mill, VA",2.9,23,"https://www.google.com/maps/place/Inova+Emergency+Room+-+Reston%2FHerndon/@38.8780396,-77.6538305,10z/data=!4m8!1m2!2m1!1semergency+room+virginia!3m4!1s0x89b637e0be332fb7:0x50769888f7d2cc7b!8m2!3d38.965411!4d-77.356699?hl=en",-77.3569382,38.9654435,VA,20190,11901 Baron Cameron Ave,Reston
156,Inova Fair Oaks Hospital Emergency Room,"3600 Joseph Siewick Dr, Fairfax, VA 22033",inova.org,"VJMC+R4 Fairfax, Virginia",3.4,95,"https://www.google.com/maps/place/Inova+Fair+Oaks+Hospital+Emergency+Room/@38.8780396,-77.6538305,10z/data=!4m8!1m2!2m1!1semergency+room+virginia!3m4!1s0x89b64600f75a0547:0x59200abd2905059c!8m2!3d38.8845875!4d-77.3797245?hl=en",-77.3800608,38.8841221,VA,22033,3600 Joseph Siewick Dr,Fairfax
157,StoneSprings Hospital Center Emergency Room,"24440 Stone Springs Blvd, Dulles, VA 20166",,"WFR5+65 Arcola, Dulles, VA",2.3,6,"https://www.google.com/maps/place/StoneSprings+Hospital+Center+Emergency+Room/@38.8780396,-77.6538305,10z/data=!4m8!1m2!2m1!1semergency+room+virginia!3m4!1s0x89b641cb22c513ab:0x3ec83550801c407e!8m2!3d38.9405661!4d-77.5420902?hl=en",-77.5424483,38.9404382,VA,20166,24440 Stone Springs Blvd,Dulles
158,Inova Emergency Room - Leesburg,"224 Cornwall St NW, Leesburg, VA 20176",inova.org,"4CCJ+27 Leesburg, Virginia",2.5,41,"https://www.google.com/maps/place/Inova+Emergency+Room+-+Leesburg/@38.8780396,-77.6538305,10z/data=!4m8!1m2!2m1!1semergency+room+virginia!3m4!1s0x89b617da16c72ae5:0x644520b96b44c963!8m2!3d39.1200771!4d-77.5692916?hl=en",-77.5688377,39.1198197,VA,20176,224 Cornwall St NW,Leesburg
159,Inova Emergency Room - Fairfax City,"4315 Chain Bridge Rd, Fairfax, VA 22030",inova.org,"RMQQ+6W Fairfax, Virginia",3.5,53,"https://www.google.com/maps/place/Inova+Emergency+Room+-+Fairfax+City/@38.8780396,-77.6538305,10z/data=!4m8!1m2!2m1!1semergency+room+virginia!3m4!1s0x89b64ef4b9156135:0x5a597bbf52a6aac6!8m2!3d38.8380479!4d-77.3101915?hl=en",-77.3102029,38.838041,VA,22030,4315 Chain Bridge Rd,Fairfax
160,Inova Emergency Room - Ashburn HealthPlex,"22505 Landmark Ct STE 210, Ashburn, VA 20148",inova.org,"XGW9+2M Ashburn, Virginia",3.4,60,"https://www.google.com/maps/place/Inova+Emergency+Room+-+Ashburn+HealthPlex/@38.8780396,-77.6538305,10z/data=!4m8!1m2!2m1!1semergency+room+virginia!3m4!1s0x89b63f486f0fc1af:0x61d4ebe95024b708!8m2!3d38.9950915!4d-77.4808321?hl=en",-77.4808851,38.9951129,VA,20148,22505 Landmark Ct STE 210,Ashburn
161,Reston Hospital Center Emergency Room,"1850 Town Center Pkwy, Reston, VA 20190",restonhospital.com,"XJ6P+VJ Reston, Hunter Mill, VA",2.7,19,"https://www.google.com/maps/place/Reston+Hospital+Center+Emergency+Room/@38.8780396,-77.6538305,10z/data=!4m8!1m2!2m1!1semergency+room+virginia!3m4!1s0x89b6481d74e15f31:0xcfb89c3090913566!8m2!3d38.962137!4d-77.3634126?hl=en",-77.363936,38.9626797,VA,20190,1850 Town Center Pkwy,Reston
162,Inova Loudoun Hospital Emergency Room,"Emergency Room, 44045 Riverside Pkwy, Leesburg, VA 20176",inova.org,"3GFC+RH Leesburg, Virginia",3.2,15,"https://www.google.com/maps/place/Inova+Loudoun+Hospital+Emergency+Room/@38.8780396,-77.6538305,10z/data=!4m8!1m2!2m1!1semergency+room+virginia!3m4!1s0x89b63c0c3a532261:0x10f006c0b8537495!8m2!3d39.074584!4d-77.4785114?hl=en",-77.4785114,39.074584,VA,20176,Emergency Room,44045 Riverside Pkwy
163,Virginia Hospital Center Emergency Room,"1701 N George Mason Dr, Arlington, VA 22205",virginiahospitalcenter.com,"VVQF+CC Arlington, Mason, VA",3.2,31,,-77.1274832,38.8890755,VA,22205,1701 N George Mason Dr,Arlington
164,Kaiser Permanente Fontana Medical Center Emergency Room,"9961 Sierra Ave Medical, Office Building 3, Fontana, CA 92335",healthy.kaiserpermanente.org,"3HC9+G4 Fontana, California",1.7,29,"https://www.google.com/maps/place/Kaiser+Permanente+Fontana+Medical+Center+Emergency+Room/@35.5453067,-123.5248017,6z/data=!4m8!1m2!2m1!1sEmergencyroom+California!3m4!1s0x80c34d39ffb8f689:0x349f310c1be86b14!8m2!3d34.0713456!4d-117.4321698?hl=en",-117.4321698,34.0713456,CA,92335,9961 Sierra Ave Medical,Office Building 3
165,Saint Francis Memorial Hospital,"900 Hyde St, San Francisco, CA 94109",locations.dignityhealth.org,"QHQM+R6 Nob Hill, San Francisco, CA",3.3,103,"https://www.google.com/maps/place/Saint+Francis+Memorial+Hospital/@35.5453067,-123.5248017,6z/data=!4m8!1m2!2m1!1sEmergencyroom+California!3m4!1s0x8085809374da3219:0x4d8ea1e19d7b0e9e!8m2!3d37.789524!4d-122.4169739?hl=en",-122.4167294,37.7893799,CA,94109,900 Hyde St,San Francisco
166,Emergency Room | Kaiser Permanente Los Angeles Medical Center,"4867 Sunset Blvd, Los Angeles, CA 90027",healthy.kaiserpermanente.org,"3PX4+83 Los Angeles, California",2.8,15,"https://www.google.com/maps/place/Emergency+Room+%7C+Kaiser+Permanente+Los+Angeles+Medical+Center/@35.5453067,-123.5248017,6z/data=!4m8!1m2!2m1!1sEmergencyroom+California!3m4!1s0x80c2c1c6b2011127:0x63b199c4e1e74124!8m2!3d34.0983524!4d-118.2948016?hl=en",-118.2948016,34.0983524,CA,90027,4867 Sunset Blvd,Los Angeles
167,Community Hospital of the Monterey Peninsula,"23625 Holman Hwy, Monterey, CA 93940",chomp.org,"H3HP+CJ Monterey, California",3.6,110,"https://www.google.com/maps/place/Community+Hospital+of+the+Monterey+Peninsula/@35.5453067,-123.5248017,6z/data=!4m8!1m2!2m1!1sEmergencyroom+California!3m4!1s0x808de687e280bfed:0x58ccec6d4490e8a7!8m2!3d36.5785609!4d-121.9134061?hl=en",-121.9134061,36.5785609,CA,93940,23625 Holman Hwy,Monterey
168,ValleyCare Medical Plaza- East,"5725 W Las Positas Blvd, Pleasanton, CA 94588",valleycare.com,"M4Q7+J6 Pleasanton, California",4.5,2,"https://www.google.com/maps/place/ValleyCare+Medical+Plaza-+East/@35.5453067,-123.5248017,6z/data=!4m8!1m2!2m1!1sEmergencyroom+California!3m4!1s0x808fe7967a364889:0x11e66f598b7e2498!8m2!3d37.6890129!4d-121.8868823?hl=en",-121.8867637,37.6889806,CA,94588,5725 W Las Positas Blvd,Pleasanton
169,Paradise Valley Hospital - Emergency Room,"2400 E 4th St, National City, CA 91950",paradisevalleyhospital.net,"MWP8+2W National City, California",3.3,261,"https://www.google.com/maps/place/Paradise+Valley+Hospital+-+Emergency+Room/@35.5453067,-123.5248017,6z/data=!4m8!1m2!2m1!1sEmergencyroom+California!3m4!1s0x80d952299f532e43:0x58b1d690f5db3bab!8m2!3d32.6850326!4d-117.0827042?hl=en",-117.0828852,32.6851132,CA,91950,2400 E 4th St,National City
170,San Francisco Veterans Affairs Medical Center Emergency Department,"4150 Clement St, San Francisco, CA 94121",sanfrancisco.va.gov,"QFJV+WV Sea Cliff, San Francisco, CA",4,2,"https://www.google.com/maps/place/San+Francisco+Veterans+Affairs+Medical+Center+Emergency+Department/@35.5453067,-123.5248017,6z/data=!4m8!1m2!2m1!1sEmergencyroom+California!3m4!1s0x808587b2f21b2587:0xacbfc6921721853e!8m2!3d37.7823399!4d-122.5053682?hl=en",-122.5050511,37.7820065,CA,94121,4150 Clement St,San Francisco
171,Sacramento VA Medical Center - VA Northern California Health Care System,"10535 Hospital Way, Mather, CA 95655",northerncalifornia.va.gov,"HPF3+3C Mather, California",3.7,178,,-121.2954478,38.5732003,CA,95655,10535 Hospital Way,Mather
172,Adventist Health Tulare: Emergency Room,"869 N Cherry St, Tulare, CA 93274",adventisthealth.org,"6MC6+CH Tulare, California",3.3,4,"https://www.google.com/maps/place/Adventist+Health+Tulare:+Emergency+Room/@35.5453067,-123.5248017,6z/data=!4m8!1m2!2m1!1sEmergencyroom+California!3m4!1s0x80952b9189e8b5f3:0xb96fd01b68629567!8m2!3d36.2210166!4d-119.3385341?hl=en",-119.3384921,36.2211329,CA,93274,869 N Cherry St,Tulare
173,West Hills Hospital and Medical Center,"7300 Medical Center Dr, West Hills, CA 91307",westhillshospital.com,"693C+48 West Hills, Los Angeles, CA",3.9,593,"https://www.google.com/maps/place/West+Hills+Hospital+and+Medical+Center/@35.5453067,-123.5248017,6z/data=!4m8!1m2!2m1!1sEmergencyroom+California!3m4!1s0x80c29db3ae29c899:0xd606d9769cbbdfcb!8m2!3d34.202827!4d-118.6292184?hl=en",-118.6287791,34.2029255,CA,91307,7300 Medical Center Dr,West Hills
174,Adventist Health Reedley,"372 W Cypress Ave, Reedley, CA 93654",adventisthealth.org,"JG5X+C4 Reedley, California",2.2,65,"https://www.google.com/maps/place/Adventist+Health+Reedley/@35.5453067,-123.5248017,6z/data=!4m8!1m2!2m1!1sEmergencyroom+California!3m4!1s0x8094e2cd9567723b:0x2d984e11f80ec319!8m2!3d36.6085348!4d-119.4521895?hl=en",-119.451674,36.608381,CA,93654,372 W Cypress Ave,Reedley
175,Kaiser Permanente Downey Medical Center,"9333 Imperial Hwy, Downey, CA 90242",healthy.kaiserpermanente.org,"WV9C+JP Downey, California",3.3,393,"https://www.google.com/maps/place/Kaiser+Permanente+Downey+Medical+Center/@35.5453067,-123.5248017,6z/data=!4m8!1m2!2m1!1sEmergencyroom+California!3m4!1s0x80c2cd6f28ceb537:0xeb898707f21a9a0a!8m2!3d33.91901!4d-118.1281916?hl=en",-118.1288176,33.9191528,CA,90242,9333 Imperial Hwy,Downey
176,UCLA Medical Center Santa Monica,"1250 16th St, Santa Monica, CA 90404",uclahealth.org,"2GG7+VC Santa Monica, California",3.8,169,"https://www.google.com/maps/place/UCLA+Medical+Center+Santa+Monica/@35.5453067,-123.5248017,6z/data=!4m8!1m2!2m1!1sEmergencyroom+California!3m4!1s0x80c2bb355072975d:0x7cb17c2f2718f3f3!8m2!3d34.0271553!4d-118.4864941?hl=en",-118.4863064,34.0270998,CA,90404,1250 16th St,Santa Monica
177,Good Samaritan Hospital,"1225 Wilshire Blvd, Los Angeles, CA 90017",goodsam.org,"3P3M+PW Los Angeles, California",3.4,348,"https://www.google.com/maps/place/Good+Samaritan+Hospital/@35.5453067,-123.5248017,6z/data=!4m8!1m2!2m1!1sEmergencyroom+California!3m4!1s0x80c2c7a55af826bf:0x761d3fa8937b58f7!8m2!3d34.0542523!4d-118.265188?hl=en",-118.2649048,34.054492,CA,90017,1225 Wilshire Blvd,Los Angeles
178,Northern Inyo Healthcare District : Emergency Room,"150 Pioneer Ln, Bishop, CA 93514",nih.org,"9H6V+WQ Bishop, California",5,1,"https://www.google.com/maps/place/Northern+Inyo+Healthcare+District+:+Emergency+Room/@35.5453067,-123.5248017,6z/data=!4m8!1m2!2m1!1sEmergencyroom+California!3m4!1s0x80be3df7e02555d7:0xc1546b078432bc90!8m2!3d37.3623735!4d-118.4056221?hl=en",-118.4061853,37.3619709,CA,93514,150 Pioneer Ln,Bishop
179,Emanate Health Queen of the Valley Hospital,"1115 S Sunset Ave, West Covina, CA 91790",emanatehealth.org,"3373+9W West Covina, California",3.4,217,"https://www.google.com/maps/place/Emanate+Health+Queen+of+the+Valley+Hospital/@35.5453067,-123.5248017,6z/data=!4m8!1m2!2m1!1sEmergencyroom+California!3m4!1s0x80c2d7cbdb040627:0x8169a8149d9d1acd!8m2!3d34.0634804!4d-117.9452464?hl=en",-117.9453122,34.0642264,CA,91790,1115 S Sunset Ave,West Covina
180,Adventist Health Selma,"1141 Rose Ave, Selma, CA 93662",adventisthealth.org,"HC92+3G Selma, California",2.8,81,"https://www.google.com/maps/place/Adventist+Health+Selma/@35.5453067,-123.5248017,6z/data=!4m8!1m2!2m1!1sEmergencyroom+California!3m4!1s0x8094f00735a81e3d:0xf7588a9b67e13c9f!8m2!3d36.567684!4d-119.5986837?hl=en",-119.5991582,36.5676997,CA,93662,1141 Rose Ave,Selma
181,CPMC Davies Campus,"45 Castro St, San Francisco, CA 94114",sutterhealth.org,"QH98+84 The Castro, San Francisco, CA",3.9,145,"https://www.google.com/maps/place/CPMC+Davies+Campus/@35.5453067,-123.5248017,6z/data=!4m8!1m2!2m1!1sEmergencyroom+California!3m4!1s0x808580a7ef3fc2a1:0x900b533577a5b835!8m2!3d37.7683483!4d-122.4346938?hl=en",-122.4354438,37.768847,CA,94114,45 Castro St,San Francisco
182,Pioneers Memorial Hospital,"207 W Legion Rd, Brawley, CA 92227",pmhd.org,"XC5W+G6 Brawley, California",3.1,67,"https://www.google.com/maps/place/Pioneers+Memorial+Hospital/@35.5453067,-123.5248017,6z/data=!4m8!1m2!2m1!1sEmergencyroom+California!3m4!1s0x80d75a3199abe171:0xf44b35e85a426347!8m2!3d32.9587576!4d-115.5543752?hl=en",-115.5544386,32.9587164,CA,92227,207 W Legion Rd,Brawley
183,"CPMC Pediatric Emergency, Van Ness Campus","1260 Franklin St, San Francisco, CA 94109",sutterhealth.org,"QHPG+CV Western Addition, San Francisco, CA",4.3,12,"https://www.google.com/maps/place/CPMC+Pediatric+Emergency,+Van+Ness+Campus/@35.6074707,-123.49059,6z/data=!4m8!1m2!2m1!1sEmergencyroom+California!3m4!1s0x8085813156af8cb5:0xcc800d865c287802!8m2!3d37.7861095!4d-122.4227983?hl=en",-122.422386,37.7860001,CA,94109,1260 Franklin St,San Francisco
184,Emergency Room | Kaiser Permanente Orange County - Anaheim Medical Center,"3440 E La Palma Ave Building 1, Anaheim, CA 92806",healthy.kaiserpermanente.org,"V524+R8 Anaheim, California",2.3,10,,-117.8441325,33.8520823,CA,92806,3440 E La Palma Ave Building 1,Anaheim
185,Palmdale Regional Medical Center,"38600 Medical Center Dr, Palmdale, CA 93551",palmdaleregional.com,"HVM4+C3 Palmdale, California",2.4,508,"https://www.google.com/maps/place/Palmdale+Regional+Medical+Center/@35.6074707,-123.49059,6z/data=!4m8!1m2!2m1!1sEmergencyroom+California!3m4!1s0x80c259b31eab04ef:0xf675a5da2f3634e5!8m2!3d34.5835036!4d-118.1447851?hl=en",-118.1443812,34.582899,CA,93551,38600 Medical Center Dr,Palmdale
186,Emergency Room | Kaiser Permanente Zion Medical Center,"4647 Zion Ave, San Diego, CA 92120",healthy.kaiserpermanente.org,"QWR3+JR San Diego, California",2.2,12,"https://www.google.com/maps/place/Emergency+Room+%7C+Kaiser+Permanente+Zion+Medical+Center/@35.6074707,-123.49059,6z/data=!4m8!1m2!2m1!1sEmergencyroom+California!3m4!1s0x80d955c4b00c0643:0x4f7b73deb649046b!8m2!3d32.7916133!4d-117.0954049?hl=en",-117.0954049,32.7916133,CA,92120,4647 Zion Ave,San Diego
187,Adventist Health Tulare,"869 N Cherry St, Tulare, CA 93274",adventisthealth.org,"6MC6+FJ Tulare, California",2.5,83,"https://www.google.com/maps/place/Adventist+Health+Tulare/@35.6074707,-123.49059,6z/data=!4m8!1m2!2m1!1sEmergencyroom+California!3m4!1s0x80952b91e9de091d:0x4fa1ffe57f2e0227!8m2!3d36.2211329!4d-119.3384921?hl=en",-119.3384921,36.2211329,CA,93274,869 N Cherry St,Tulare
188,Emergency Room | Kaiser Permanente Santa Clara Medical Center and Medical Offices,"700 Lawrence Expy, Santa Clara, CA 95051",kp.org,"82P2+6C Santa Clara, California",2.4,23,,-121.998538,37.3362374,CA,95051,700 Lawrence Expy,Santa Clara
189,Emergency Room | Kaiser Permanente Sacramento Medical Center and Medical Offices,"2025 Morse Ave, Sacramento, CA 95825",,"JJ24+RQ Sacramento, California",3.7,3,,-121.3931543,38.6015925,CA,95825,2025 Morse Ave,Sacramento
190,South Coast Global Medical Center: Emergency Room,"2701 S Bristol St, Santa Ana, CA 92704",,"P468+G3 Santa Ana, California",1.9,9,"https://www.google.com/maps/place/South+Coast+Global+Medical+Center:+Emergency+Room/@35.6074707,-123.49059,6z/data=!4m8!1m2!2m1!1sEmergencyroom+California!3m4!1s0x80dcd8d139fd3345:0x9cad2f9dda72e9e1!8m2!3d33.7113483!4d-117.8847519?hl=en",-117.8851902,33.7110583,CA,92704,2701 S Bristol St,Santa Ana
191,El Centro Regional Medical Center: Emergency Room,"1415 Ross Ave, El Centro, CA 92243",ecrmc.org,"QCJJ+2H El Centro, California",4.7,3,"https://www.google.com/maps/place/El+Centro+Regional+Medical+Center:+Emergency+Room/@35.6074707,-123.49059,6z/data=!4m8!1m2!2m1!1sEmergencyroom+California!3m4!1s0x80d760d553f53ed9:0x49c877413273b0ec!8m2!3d32.7800127!4d-115.5685699?hl=en",-115.568571,32.7804333,CA,92243,1415 Ross Ave,El Centro
192,Anaheim Global Medical Center: Emergency Room,"1025 S Anaheim Blvd, Anaheim, CA 92805",anaheim-gmc.com,"R39R+W6 Anaheim, California",1.6,7,"https://www.google.com/maps/place/Anaheim+Global+Medical+Center:+Emergency+Room/@35.6074707,-123.49059,6z/data=!4m8!1m2!2m1!1sEmergencyroom+California!3m4!1s0x80dcd7ccf08bdbd3:0xf6d9b4c6313d2c7a!8m2!3d33.8198344!4d-117.9094512?hl=en",-117.9097961,33.8196827,CA,92805,1025 S Anaheim Blvd,Anaheim
193,Adventist Health Tulare: Emergency Room,"869 N Cherry St, Tulare, CA 93274",adventisthealth.org,"6MC6+CH Tulare, California",3.3,4,"https://www.google.com/maps/place/Adventist+Health+Tulare:+Emergency+Room/@35.6074707,-123.49059,6z/data=!4m8!1m2!2m1!1sEmergencyroom+California!3m4!1s0x80952b9189e8b5f3:0xb96fd01b68629567!8m2!3d36.2210166!4d-119.3385341?hl=en",-119.3384921,36.2211329,CA,93274,869 N Cherry St,Tulare
194,Emergency Room | Kaiser Permanente Downey Medical Center,"9333 Imperial Hwy, Downey, CA 90242",healthy.kaiserpermanente.org,"WV9C+MF Downey, California",2.1,31,"https://www.google.com/maps/place/Emergency+Room+%7C+Kaiser+Permanente+Downey+Medical+Center/@35.6074707,-123.49059,6z/data=!4m8!1m2!2m1!1sEmergencyroom+California!3m4!1s0x80c2cd8f8516832f:0x33f6f995606aecf6!8m2!3d33.9191528!4d-118.1288176?hl=en",-118.1288176,33.9191528,CA,90242,9333 Imperial Hwy,Downey
195,Veterans Administration Hospital Loma Linda: Emergency Room,"11201 Benton St, Loma Linda, CA 92357",lomalinda.va.gov,"3P2X+7W Loma Linda, California",2.7,10,"https://www.google.com/maps/place/Veterans+Administration+Hospital+Loma+Linda:+Emergency+Room/@35.6074707,-123.49059,6z/data=!4m8!1m2!2m1!1sEmergencyroom+California!3m4!1s0x80dcab90d12c17ad:0xe92ef6cb85b6f667!8m2!3d34.0507259!4d-117.2501932?hl=en",-117.2521291,34.0502196,CA,92357,11201 Benton St,Loma Linda
196,San Gorgonio Memorial Hospital: Emergency Room,"600 N Highland Springs Ave, Banning, CA 92220",sgmh.org,"W3J4+F2 Banning, California",3.9,7,"https://www.google.com/maps/place/San+Gorgonio+Memorial+Hospital:+Emergency+Room/@35.6074707,-123.49059,6z/data=!4m8!1m2!2m1!1sEmergencyroom+California!3m4!1s0x80db44824e137843:0x2c71f26f287b6ba0!8m2!3d33.9311972!4d-116.9449052?hl=en",-116.9461472,33.9316874,CA,92220,600 N Highland Springs Ave,Banning
197,VA Greater Los Angeles Healthcare System Emergency Room,"11301 Wilshire Blvd, Los Angeles, CA 90073",losangeles.va.gov,"3G3X+65 Sawtelle, Los Angeles, CA",4,8,"https://www.google.com/maps/place/VA+Greater+Los+Angeles+Healthcare+System+Emergency+Room/@35.6074707,-123.49059,6z/data=!4m8!1m2!2m1!1sEmergencyroom+California!3m4!1s0x80c2bb6340ec9ed7:0xb72c2dbd6ae3faee!8m2!3d34.053023!4d-118.4520848?hl=en",-118.4527364,34.0526311,CA,90073,11301 Wilshire Blvd,Los Angeles
198,Hoag Hospital Irvine Emergency Room,"16200 Sand Canyon Ave, Irvine, CA 92618",hoag.org,"M66H+75 Irvine, California",2.6,40,"https://www.google.com/maps/place/Hoag+Hospital+Irvine+Emergency+Room/@35.6074707,-123.49059,6z/data=!4m8!1m2!2m1!1sEmergencyroom+California!3m4!1s0x80dcdd6fe6c4274f:0x6f8da8bf860d87b7!8m2!3d33.6607002!4d-117.7720596?hl=en",-117.7724516,33.6608041,CA,92618,16200 Sand Canyon Ave,Irvine
199,Kaiser Permanente San Diego Medical Center Emergency Room,"9455 Clairemont Mesa Blvd, San Diego, CA 92123",thrive.kaiserpermanente.org,"RVHF+VV San Diego, California",3,4,"https://www.google.com/maps/place/Kaiser+Permanente+San+Diego+Medical+Center+Emergency+Room/@35.6074707,-123.49059,6z/data=!4m8!1m2!2m1!1sEmergencyroom+California!3m4!1s0x80dbff352ef3cfd5:0xb3395c3726e357ec!8m2!3d32.8297207!4d-117.1252981?hl=en",-117.1251884,32.8297116,CA,92123,9455 Clairemont Mesa Blvd,San Diego
200,La Palma Intercommunity Hospital - Emergency Room,"7901 Walker St, La Palma, CA 90623",lapalmaintercommunityhospital.com,"RXX6+3W La Palma, California",2.7,85,"https://www.google.com/maps/place/La+Palma+Intercommunity+Hospital+-+Emergency+Room/@35.6074707,-123.49059,6z/data=!4m8!1m2!2m1!1sEmergencyroom+California!3m4!1s0x80dd2c14302fc9c9:0x5fadc78b9fb6696e!8m2!3d33.8476344!4d-118.037665?hl=en",-118.038414,33.847533,CA,90623,7901 Walker St,La Palma
201,Emergency Room | Kaiser Permanente San Rafael Medical Center,"99 Montecillo Rd, San Rafael, CA 94903",thrive.kaiserpermanente.org,"2C3W+P4 San Rafael, California",5,2,"https://www.google.com/maps/place/Emergency+Room+%7C+Kaiser+Permanente+San+Rafael+Medical+Center/@36.0325765,-124.4211123,6z/data=!4m8!1m2!2m1!1sEmergencyroom+California!3m4!1s0x8085972bc404e959:0xa61202255a1fca89!8m2!3d38.0042845!4d-122.5546399?hl=en",-122.5546467,38.0043293,CA,94903,99 Montecillo Rd,San Rafael
202,San Ramon Regional Medical Center- Emergency Room,"6001 Norris Canyon Rd, San Ramon, CA 94583",sanramonmedctr.com,"Q2GR+CP San Ramon, California",4,4,"https://www.google.com/maps/place/San+Ramon+Regional+Medical+Center-+Emergency+Room/@36.0325765,-124.4211123,6z/data=!4m8!1m2!2m1!1sEmergencyroom+California!3m4!1s0x808ff28d8e899ed7:0xcf6b3e4dfa568c16!8m2!3d37.7760336!4d-121.9581282?hl=en",-121.9582426,37.7759705,CA,94583,6001 Norris Canyon Rd,San Ramon
203,Emergency Room | Kaiser Permanente Modesto Medical Center and Medical Offices,"4601 Dale Rd, Modesto, CA 95356",healthy.kaiserpermanente.org,"PW4X+CW Modesto, California",3.6,12,,-121.0525295,37.7064351,CA,95356,4601 Dale Rd,Modesto
204,Emergency Room | Kaiser Permanente Santa Rosa Medical Center and Medical Offices,"401 Bicentennial Way, Santa Rosa, CA 95403",,"F7CF+V5 Santa Rosa, California",3.4,5,,-122.7267519,38.4715941,CA,95403,401 Bicentennial Way,Santa Rosa
205,Emergency Room | Kaiser Permanente Richmond Medical Center,"901 Nevin Ave, Richmond, CA 94801",,"WJPQ+VQ Richmond, California",4.3,13,"https://www.google.com/maps/place/Emergency+Room+%7C+Kaiser+Permanente+Richmond+Medical+Center/@36.0325765,-124.4211123,6z/data=!4m8!1m2!2m1!1sEmergencyroom+California!3m4!1s0x8085830d0e7f91b7:0x8744b5d0e3e49673!8m2!3d37.9372185!4d-122.3606047?hl=en",-122.3605559,37.9371877,CA,94801,901 Nevin Ave,Richmond
206,Hollywood Presbyterian Medical Center Emergency Room,"1300 N Vermont Ave, Los Angeles, CA 90027",hollywoodpresbyterian.com,"3PW5+FF Los Angeles, California",2.4,122,"https://www.google.com/maps/place/Hollywood+Presbyterian+Medical+Center+Emergency+Room/@36.0325765,-124.4211123,6z/data=!4m8!1m2!2m1!1sEmergencyroom+California!3m4!1s0x80c2c7532790e3e3:0xebca720c9df770b6!8m2!3d34.0962367!4d-118.2912621?hl=en",-118.2903056,34.0963187,CA,90027,1300 N Vermont Ave,Los Angeles
207,San Dimas Community Hospital - Emergency Services,"1350 W Covina Blvd, San Dimas, CA 91773",sandimashospital.com,"35X8+38 San Dimas, California",2.7,107,"https://www.google.com/maps/place/San+Dimas+Community+Hospital+-+Emergency+Services/@36.0325765,-124.4211123,6z/data=!4m8!1m2!2m1!1sEmergencyroom+California!3m4!1s0x80c328cd83762895:0xb6e20f12a961e4c3!8m2!3d34.0977337!4d-117.834205?hl=en",-117.8345314,34.097533,CA,91773,1350 W Covina Blvd,San Dimas
208,Marshall Emergency Department,"1100 Marshall Way, Placerville, CA 95667",marshallmedical.org,"P6F5+MC Placerville, California",3.4,7,"https://www.google.com/maps/place/Marshall+Emergency+Department/@36.0325765,-124.4211123,6z/data=!4m8!1m2!2m1!1sEmergencyroom+California!3m4!1s0x809a50a535422d93:0x229e82bcc1fa9825!8m2!3d38.7241643!4d-120.7914703?hl=en",-120.7916501,38.72467,CA,95667,1100 Marshall Way,Placerville
209,Kaiser Permanente Panorama City Medical Center: Emergency Room,"13651 Willard St, Panorama City, CA 91402",kp.org,"6H9C+94 Los Angeles, California",2,4,"https://www.google.com/maps/place/Kaiser+Permanente+Panorama+City+Medical+Center:+Emergency+Room/@36.0325765,-124.4211123,6z/data=!4m8!1m2!2m1!1sEmergencyroom+California!3m4!1s0x80c296d1b1d954e5:0xa2750ff3b35c8f0a!8m2!3d34.2184184!4d-118.4297258?hl=en",-118.4302294,34.2189257,CA,91402,13651 Willard St,Panorama City
210,Twin Cities Community Hospital: Emergency Room,"1100 Las Tablas Rd, Templeton, CA 93465",twincitieshospital.com,"H73J+W6 Templeton, California",,,"https://www.google.com/maps/place/Twin+Cities+Community+Hospital:+Emergency+Room/@36.0325765,-124.4211123,6z/data=!4m8!1m2!2m1!1sEmergencyroom+California!3m4!1s0x80ecdb513d7e0a3f:0x6495f7031efa314c!8m2!3d35.5548391!4d-120.7194888?hl=en",-120.7193676,35.5549761,CA,93465,1100 Las Tablas Rd,Templeton
211,Emergency Room - Mercy Hospital Southwest,"400 Old River Rd, Bakersfield, CA 93311",locations.dignityhealth.org,"9V2P+7X Bakersfield, California",3,3,"https://www.google.com/maps/place/Emergency+Room+-+Mercy+Hospital+Southwest/@36.0325765,-124.4211123,6z/data=!4m8!1m2!2m1!1sEmergencyroom+California!3m4!1s0x80ea43de8f577e29:0xf2cda7af94473954!8m2!3d35.3506778!4d-119.1125834?hl=en",-119.1124392,35.3515393,CA,93311,400 Old River Rd,Bakersfield
212,Oroville Hospital- Emergency Room,"2767 Olive Hwy, Oroville, CA 95966",orovillehospital.com,"GF45+GH Oroville, California",1.2,25,"https://www.google.com/maps/place/Oroville+Hospital-+Emergency+Room/@36.0325765,-124.4211123,6z/data=!4m8!1m2!2m1!1sEmergencyroom+California!3m4!1s0x809cb4296bffffff:0x9034d7037f39e8c5!8m2!3d39.5062597!4d-121.5410928?hl=en",-121.5410928,39.5062597,CA,95966,2767 Olive Hwy,Oroville
213,Emergency Room | Kaiser Permanente Antioch Medical Center,"4501 Sand Creek Rd, Antioch, CA 94531",kp.org,"X62G+87 Antioch, California",1.6,7,,-121.7749286,37.9508418,CA,94531,4501 Sand Creek Rd,Antioch
214,Sutter Medical Campus: Emergency Room,"180 Rowland Way, Novato, CA 94945",novatocommunity.org,"3CWR+RQ Novato, California",,,"https://www.google.com/maps/place/Sutter+Medical+Campus:+Emergency+Room/@36.0325765,-124.4211123,6z/data=!4m8!1m2!2m1!1sEmergencyroom+California!3m4!1s0x8085bcbda483c6a5:0x32c7ba72f130ffb4!8m2!3d38.097073!4d-122.558117?hl=en",-122.560229,38.099153,CA,94945,180 Rowland Way,Novato
215,Bakersfield Heart Hospital: Emergency Room,"3001 Sillect Ave, Bakersfield, CA 93308",bakersfieldhearthospital.com,"9XM6+V5 Bakersfield, California",2.6,10,"https://www.google.com/maps/place/Bakersfield+Heart+Hospital:+Emergency+Room/@36.0325765,-124.4211123,6z/data=!4m8!1m2!2m1!1sEmergencyroom+California!3m4!1s0x80ea69e7366ba655:0x70f50720b100dc96!8m2!3d35.3847032!4d-119.0395461?hl=en",-119.0399171,35.3847081,CA,93308,3001 Sillect Ave,Bakersfield
216,Kaiser Permanente San Diego Medical Center :Emergency Department,"9455 Clairemont Mesa Blvd, San Diego, CA 92123",thrive.kaiserpermanente.org,"RVJF+4P San Diego, California",2.9,17,"https://www.google.com/maps/place/Kaiser+Permanente+San+Diego+Medical+Center+:Emergency+Department/@36.0325765,-124.4211123,6z/data=!4m8!1m2!2m1!1sEmergencyroom+California!3m4!1s0x80dbfe4b211c95b3:0xae8f08541de07c94!8m2!3d32.830285!4d-117.1257416?hl=en",-117.1251884,32.8297116,CA,92123,9455 Clairemont Mesa Blvd,San Diego
217,Emergency Room | Kaiser Permanente Fremont Medical Center and Offices,"39400 Paseo Padre Pkwy, Fremont, CA 94538",m.kp.org,"H22G+X6 Fremont, California",2.1,11,,-121.9747793,37.5521961,CA,94538,39400 Paseo Padre Pkwy,Fremont
218,Oak Valley Hospital District: Emergency Room,"350 S Oak Ave, Oakdale, CA 95361",oakvalleycares.org,"Q44Q+VP Oakdale, California",2.2,17,"https://www.google.com/maps/place/Oak+Valley+Hospital+District:+Emergency+Room/@36.0325765,-124.4211123,6z/data=!4m8!1m2!2m1!1sEmergencyroom+California!3m4!1s0x8090f8480428d43b:0x42c881982e1ef037!8m2!3d37.7572387!4d-120.86064?hl=en",-120.8609984,37.7575437,CA,95361,350 S Oak Ave,Oakdale
219,Emergency Room | Kaiser Permanente Fresno Medical Center,"7300 N Fresno St, Fresno, CA 93720",healthy.kaiserpermanente.org,"R6R9+XR Fresno, California",5,1,"https://www.google.com/maps/place/Emergency+Room+%7C+Kaiser+Permanente+Fresno+Medical+Center/@36.0325765,-124.4211123,6z/data=!4m8!1m2!2m1!1sEmergencyroom+California!3m4!1s0x809443840de4a047:0x63f0050392b5ed5f!8m2!3d36.8424331!4d-119.780467?hl=en",-119.780467,36.8424331,CA,93720,7300 N Fresno St,Fresno
220,Naval Medical Center San Diego Emergency Room,"34800 Bob Wilson Dr, San Diego, CA 92134",sandiego.networkofcare.org,"PVG3+QH San Diego, California",2.5,15,"https://www.google.com/maps/place/Naval+Medical+Center+San+Diego+Emergency+Room/@36.0325765,-124.4211123,6z/data=!4m8!1m2!2m1!1sEmergencyroom+California!3m4!1s0x80d95499bb0f2faf:0x2d2718459be86279!8m2!3d32.7268798!4d-117.1460895?hl=en",-117.1456567,32.7252324,CA,92134,34800 Bob Wilson Dr,San Diego
221,White Memorial Medical Center Emergency Room,"Specialty Care Tower, Ground Floor, 1720 East Cesar E Chavez Avenue, Los Angeles, CA 90033",adventisthealth.org,"2QXJ+GQ Los Angeles, California",3.2,57,"https://www.google.com/maps/place/White+Memorial+Medical+Center+Emergency+Room/@35.8113379,-123.6577282,6z/data=!4m8!1m2!2m1!1sEmergencyroom+California!3m4!1s0x80c2c611e6bdf573:0x91cc651f9c26110e!8m2!3d34.0487823!4d-118.218081?hl=en",-118.218081,34.0487823,CA,90033,Specialty Care Tower,Ground Floor
222,Garfield Medical Center Emergency Room,"525 N Garfield Ave, Monterey Park, CA 91754",garfieldmedicalcenter.com,"3V9G+6M Monterey Park, California",2.9,52,"https://www.google.com/maps/place/Garfield+Medical+Center+Emergency+Room/@35.8113379,-123.6577282,6z/data=!4m8!1m2!2m1!1sEmergencyroom+California!3m4!1s0x80c2c54ff6f9de91:0xe0828bff397e5435!8m2!3d34.0680902!4d-118.1233504?hl=en",-118.1238043,34.0678947,CA,91754,525 N Garfield Ave,Monterey Park
223,Adventist Health Delano Regional Medical Center: Emergency Room,"1401 Garces Hwy, Delano, CA 93215",drmc.com,"QQ76+35 Delano, California",1,9,"https://www.google.com/maps/place/Adventist+Health+Delano+Regional+Medical+Center:+Emergency+Room/@35.8113379,-123.6577282,6z/data=!4m8!1m2!2m1!1sEmergencyroom+California!3m4!1s0x80eae585cb993619:0x285e9f0c0b0ac30a!8m2!3d35.7626492!4d-119.2395985?hl=en",-119.2392519,35.7622854,CA,93215,1401 Garces Hwy,Delano
224,Fountain Valley Regional Medical Center Emergency Room,"17100 Euclid St, Fountain Valley, CA 92708",fountainvalleyhospital.com,"P377+XC Fountain Valley, California",3.9,17,"https://www.google.com/maps/place/Fountain+Valley+Regional+Medical+Center+Emergency+Room/@35.8113379,-123.6577282,6z/data=!4m8!1m2!2m1!1sEmergencyroom+California!3m4!1s0x80dd2767baaaa6df:0xb60637e51f7e5198!8m2!3d33.7149925!4d-117.9364431?hl=en",-117.9360672,33.7151853,CA,92708,17100 Euclid St,Fountain Valley
225,Emergency Room | Kaiser Permanente Vacaville Medical Center,"1 Quality Dr, Vacaville, CA 95688",kp.org,"93Q6+63 Vacaville, California",2.6,5,"https://www.google.com/maps/place/Emergency+Room+%7C+Kaiser+Permanente+Vacaville+Medical+Center/@35.8113379,-123.6577282,6z/data=!4m8!1m2!2m1!1sEmergencyroom+California!3m4!1s0x808523248aa8cebb:0x8a66158144a76cf4!8m2!3d38.388032!4d-121.9398245?hl=en",-121.9387685,38.3882169,CA,95688,1 Quality Dr,Vacaville
226,AHMC Anaheim Regional Medical Center Emergency Room,"1111 W La Palma Ave, Anaheim, CA 92801",anaheimregionalmc.com,"R3X8+2G Anaheim, California",2.3,3,"https://www.google.com/maps/place/AHMC+Anaheim+Regional+Medical+Center+Emergency+Room/@35.8113379,-123.6577282,6z/data=!4m8!1m2!2m1!1sEmergencyroom+California!3m4!1s0x80dd29fb28165ea3:0x70c1ddd4d8bdfbde!8m2!3d33.8475161!4d-117.9336564?hl=en",-117.9345264,33.8481751,CA,92801,1111 W La Palma Ave,Anaheim
227,Loma Linda University Medical Center: Emergency Room,"11234 Anderson St, Loma Linda, CA 92354",lluh.org,"2PXP+R6 Loma Linda, California",2,60,"https://www.google.com/maps/place/Loma+Linda+University+Medical+Center:+Emergency+Room/@35.8113379,-123.6577282,6z/data=!4m8!1m2!2m1!1sEmergencyroom+California!3m4!1s0x80dcab888f1183e7:0xca284c9979532248!8m2!3d34.049561!4d-117.2644759?hl=en",-117.2641774,34.0494519,CA,92354,11234 Anderson St,Loma Linda
228,Barton Health: Emergency Room,"2170 South Ave, South Lake Tahoe, CA 96150",bartonhealth.org,"W263+H7 South Lake Tahoe, California",2.3,4,"https://www.google.com/maps/place/Barton+Health:+Emergency+Room/@35.8113379,-123.6577282,6z/data=!4m8!1m2!2m1!1sEmergencyroom+California!3m4!1s0x80998fc9dfa2e427:0x8608c55b9d8597a8!8m2!3d38.9113939!4d-119.9968518?hl=en",-119.9965847,38.9122482,CA,96150,2170 South Ave,South Lake Tahoe
229,VA Long Beach Healthcare System Emergency Room,"5901 E 7th St, Long Beach, CA 90822",longbeach.va.gov,"QVGH+MQ Long Beach, California",4.1,16,"https://www.google.com/maps/place/VA+Long+Beach+Healthcare+System+Emergency+Room/@35.8113379,-123.6577282,6z/data=!4m8!1m2!2m1!1sEmergencyroom+California!3m4!1s0x80dd31d10eb1f223:0x573a788de3c8e39!8m2!3d33.7767407!4d-118.1205186?hl=en",-118.1189428,33.777569,CA,90822,5901 E 7th St,Long Beach
230,John F. Kennedy Memorial Hospital- Emergency Room,"47111 Monroe St, Indio, CA 92201",desertcarenetwork.com,"PQ47+FR Indio, California",2.3,73,"https://www.google.com/maps/place/John+F.+Kennedy+Memorial+Hospital-+Emergency+Room/@35.8113379,-123.6577282,6z/data=!4m8!1m2!2m1!1sEmergencyroom+California!3m4!1s0x80daf826bd0d81e7:0xd14d36d14713a07a!8m2!3d33.706232!4d-116.23549?hl=en",-116.2353527,33.7061109,CA,92201,47111 Monroe St,Indio
231,Sutter Davis Hospital Emergency Department,"2000 Sutter Pl, Davis, CA 95616",sutterhealth.org,"H66H+RF Davis, California",3.5,6,"https://www.google.com/maps/place/Sutter+Davis+Hospital+Emergency+Department/@35.8113379,-123.6577282,6z/data=!4m8!1m2!2m1!1sEmergencyroom+California!3m4!1s0x80852836bab3a7ff:0xdcd42c71301624d6!8m2!3d38.5620188!4d-121.7713549?hl=en",-121.7713549,38.5620188,CA,95616,2000 Sutter Pl,Davis
232,Kern Medical Emergency Room,"1700 Mt Vernon Ave, Bakersfield, CA 93306",kernmedical.com,"92MJ+24 East Bakersfield, Bakersfield, CA",2.9,25,"https://www.google.com/maps/place/Kern+Medical+Emergency+Room/@35.8113379,-123.6577282,6z/data=!4m8!1m2!2m1!1sEmergencyroom+California!3m4!1s0x80ea6be18bb4224d:0xc7262016519df522!8m2!3d35.3825462!4d-118.9696552?hl=en",-118.9705331,35.3829347,CA,93306,1700 Mt Vernon Ave,Bakersfield
233,Sutter Health Eden Medical Center Emergency Center,"20103 Lake Chabot Rd, Castro Valley, CA 94546",edenmedicalcenter.org,"MWX6+84 Castro Valley, California",3.9,7,"https://www.google.com/maps/place/Sutter+Health+Eden+Medical+Center+Emergency+Center/@35.8113379,-123.6577282,6z/data=!4m8!1m2!2m1!1sEmergencyroom+California!3m4!1s0x808f918c7ec81ff3:0x459febc465714222!8m2!3d37.6983405!4d-122.0896915?hl=en",-122.0903131,37.6982685,CA,94546,20103 Lake Chabot Rd,Castro Valley
234,"UC San Diego Health - Emergency Services, La Jolla","9434 Medical Center Dr, La Jolla, CA 92037",health.ucsd.edu,"VQHF+GJ La Jolla, San Diego, CA",2.2,52,"https://www.google.com/maps/place/UC+San+Diego+Health+-+Emergency+Services,+La+Jolla/@35.8113379,-123.6577282,6z/data=!4m8!1m2!2m1!1sEmergencyroom+California!3m4!1s0x80dc06d98d773b05:0x59d9532059753f99!8m2!3d32.8788519!4d-117.2259282?hl=en",-117.225894,32.8788723,CA,92037,9434 Medical Center Dr,La Jolla
235,Henry Mayo Newhall Hospital Emergency Room,"23845 McBean Pkwy, Valencia, CA 91355",henrymayo.com,"9CXW+4C Valencia, Santa Clarita, CA",3.2,75,"https://www.google.com/maps/place/Henry+Mayo+Newhall+Hospital+Emergency+Room/@35.8113379,-123.6577282,6z/data=!4m8!1m2!2m1!1sEmergencyroom+California!3m4!1s0x80c286e1c9478dfb:0x8c33c1b408fa6361!8m2!3d34.39787!4d-118.5539446?hl=en",-118.5539446,34.39787,CA,91355,23845 McBean Pkwy,Valencia
236,Adventist Medical Center - Reedley: Emergency Room,"372 W Cypress Ave, Reedley, CA 93654",,"JG5X+74 Reedley, California",,,"https://www.google.com/maps/place/Adventist+Medical+Center+-+Reedley:+Emergency+Room/@35.8113379,-123.6577282,6z/data=!4m8!1m2!2m1!1sEmergencyroom+California!3m4!1s0x8094e2cd84999181:0xc3b409047cf38640!8m2!3d36.6082119!4d-119.4522208?hl=en",-119.451674,36.608381,CA,93654,372 W Cypress Ave,Reedley
